2023-11-07
{'queryCost': 1, 'latitude': 59.0487798479, 'longitude': 10.0521754709, 'resolvedAddress': '59.0487798479,10.0521754709', 'address': '59.0487798479,10.0521754709', 'timezone': 'Europe/Oslo', 'tzoffset': 2.0, 'days': [{'datetime': '2023-09-02', 'datetimeEpoch': 1693605600, 'tempmax': 68.0, 'tempmin': 50.3, 'temp': 58.9, 'feelslikemax': 68.0, 'feelslikemin': 50.3, 'feelslike': 58.9, 'dew': 49.2, 'humidity': 72.1, 'precip': 0.0, 'precipprob': 0.0, 'precipcover': 0.0, 'preciptype': None, 'snow': 0.0, 'snowdepth': 0.0, 'windgust': 12.1, 'windspeed': 10.3, 'winddir': 355.6, 'pressure': 1014.3, 'cloudcover': 22.5, 'visibility': 7.3, 'solarradiation': 174.4, 'solarenergy': 15.0, 'uvindex': 7.0, 'sunrise': '06:18:31', 'sunriseEpoch': 1693628311, 'sunset': '20:19:14', 'sunsetEpoch': 1693678754, 'moonphase': 0.58, 'conditions': 'Partially cloudy', 'description': 'Partly cloudy throughout the day.', 'icon': 'partly-cloudy-day', 'stations': ['01485099999', '02500099999', '01495099999', 'ENTO', '01484399999', '01477099999', 'F7253', '01482599999'], 'source': 'obs'}], 'stations': {'01485099999': {'distance': 63907.0, 'latitude': 59.617, 'longitude': 10.217, 'useCount': 0, 'id': '01485099999', 'name': 'DANDE GALLEBERG, NO', 'quality': 90, 'contribution': 0.0}, '02500099999': {'distance': 56848.0, 'latitude': 58.9, 'longitude': 11.0, 'useCount': 0, 'id': '02500099999', 'name': 'NORDKOSTER, SW', 'quality': 97, 'contribution': 0.0}, '01495099999': {'distance': 46055.0, 'latitude': 59.15, 'longitude': 10.833, 'useCount': 0, 'id': '01495099999', 'name': 'STROMTANGEN FYR, NO', 'quality': 95, 'contribution': 0.0}, 'ENTO': {'distance': 20934.0, 'latitude': 59.2, 'longitude': 10.27, 'useCount': 0, 'id': 'ENTO', 'name': 'ENTO', 'quality': 47, 'contribution': 0.0}, '01484399999': {'distance': 37473.0, 'latitude': 59.317, 'longitude': 10.45, 'useCount': 0, 'id': '01484399999', 'name': 'OSEBERG, NO', 'quality': 47, 'contribution': 0.0}, '01477099999': {'distance': 74559.0, 'latitude': 59.717, 'longitude': 10.15, 'useCount': 0, 'id': '01477099999', 'name': 'KONNERUD, NO', 'quality': 93, 'contribution': 0.0}, 'F7253': {'distance': 36721.0, 'latitude': 59.375, 'longitude': 10.144, 'useCount': 0, 'id': 'F7253', 'name': 'FW7253 Tansberg NO', 'quality': 0, 'contribution': 0.0}, '01482599999': {'distance': 19361.0, 'latitude': 59.187, 'longitude': 10.259, 'useCount': 0, 'id': '01482599999', 'name': 'TORP, NO', 'quality': 47, 'contribution': 0.0}}, 'currentConditions': {'datetime': '15:00:00', 'datetimeEpoch': 1693659600, 'temp': 67.8, 'feelslike': 67.8, 'humidity': 50.5, 'dew': 48.8, 'precip': 0.0, 'precipprob': 0.0, 'snow': 0.0, 'snowdepth': 0.0, 'preciptype': None, 'windgust': 12.2, 'windspeed': 4.9, 'winddir': 308.0, 'pressure': 1015.0, 'visibility': 8.1, 'cloudcover': 0.0, 'solarradiation': 482.0, 'solarenergy': 1.7, 'uvindex': 5.0, 'conditions': 'Clear', 'icon': 'clear-day', 'stations': ['01495099999', '02500099999', '01482599999'], 'source': 'obs', 'sunrise': '06:18:31', 'sunriseEpoch': 1693628311, 'sunset': '20:19:14', 'sunsetEpoch': 1693678754, 'moonphase': 0.58}}