2023-11-07
{'queryCost': 1, 'latitude': 59.0487798479, 'longitude': 10.0521754709, 'resolvedAddress': '59.0487798479,10.0521754709', 'address': '59.0487798479,10.0521754709', 'timezone': 'Europe/Oslo', 'tzoffset': 2.0, 'days': [{'datetime': '2023-09-16', 'datetimeEpoch': 1694815200, 'tempmax': 62.2, 'tempmin': 48.9, 'temp': 57.1, 'feelslikemax': 62.2, 'feelslikemin': 43.8, 'feelslike': 56.9, 'dew': 53.8, 'humidity': 89.2, 'precip': 0.008, 'precipprob': 100.0, 'precipcover': 4.17, 'preciptype': ['rain'], 'snow': 0.0, 'snowdepth': 0.0, 'windgust': 30.9, 'windspeed': 17.2, 'winddir': 227.8, 'pressure': 1017.8, 'cloudcover': 75.1, 'visibility': 6.2, 'solarradiation': 47.3, 'solarenergy': 4.1, 'uvindex': 2.0, 'sunrise': '06:49:57', 'sunriseEpoch': 1694839797, 'sunset': '19:38:18', 'sunsetEpoch': 1694885898, 'moonphase': 0.05, 'conditions': 'Rain, Partially cloudy', 'description': 'Partly cloudy throughout the day with late afternoon rain.', 'icon': 'rain', 'stations': ['01485099999', '01482099999', '01495099999', 'ENTO', '01484399999', '01477099999', 'F7253', '01470099999', '01482599999'], 'source': 'obs'}], 'stations': {'01485099999': {'distance': 63907.0, 'latitude': 59.617, 'longitude': 10.217, 'useCount': 0, 'id': '01485099999', 'name': 'DANDE GALLEBERG, NO', 'quality': 90, 'contribution': 0.0}, '01482099999': {'distance': 26657.0, 'latitude': 59.033, 'longitude': 10.517, 'useCount': 0, 'id': '01482099999', 'name': 'FERDER LH, NO', 'quality': 39, 'contribution': 0.0}, '01495099999': {'distance': 46055.0, 'latitude': 59.15, 'longitude': 10.833, 'useCount': 0, 'id': '01495099999', 'name': 'STROMTANGEN FYR, NO', 'quality': 95, 'contribution': 0.0}, 'ENTO': {'distance': 20934.0, 'latitude': 59.2, 'longitude': 10.27, 'useCount': 0, 'id': 'ENTO', 'name': 'ENTO', 'quality': 47, 'contribution': 0.0}, '01484399999': {'distance': 37473.0, 'latitude': 59.317, 'longitude': 10.45, 'useCount': 0, 'id': '01484399999', 'name': 'OSEBERG, NO', 'quality': 47, 'contribution': 0.0}, '01477099999': {'distance': 74559.0, 'latitude': 59.717, 'longitude': 10.15, 'useCount': 0, 'id': '01477099999', 'name': 'KONNERUD, NO', 'quality': 93, 'contribution': 0.0}, 'F7253': {'distance': 36721.0, 'latitude': 59.375, 'longitude': 10.144, 'useCount': 0, 'id': 'F7253', 'name': 'FW7253 Tansberg NO', 'quality': 0, 'contribution': 0.0}, '01470099999': {'distance': 61187.0, 'latitude': 59.383, 'longitude': 9.2, 'useCount': 0, 'id': '01470099999', 'name': 'GVARV, NO', 'quality': 94, 'contribution': 0.0}, '01482599999': {'distance': 19361.0, 'latitude': 59.187, 'longitude': 10.259, 'useCount': 0, 'id': '01482599999', 'name': 'TORP, NO', 'quality': 47, 'contribution': 0.0}}, 'currentConditions': {'datetime': '15:00:00', 'datetimeEpoch': 1694869200, 'temp': 62.2, 'feelslike': 62.2, 'humidity': 76.0, 'dew': 54.5, 'precip': 0.0, 'precipprob': 0.0, 'snow': 0.0, 'snowdepth': 0.0, 'preciptype': None, 'windgust': 15.2, 'windspeed': 10.6, 'winddir': 155.0, 'pressure': 1017.3, 'visibility': 6.2, 'cloudcover': 81.6, 'solarradiation': 130.0, 'solarenergy': 0.5, 'uvindex': 1.0, 'conditions': 'Partially cloudy', 'icon': 'partly-cloudy-day', 'stations': ['01485099999', 'ENTO', '01484399999', '01482599999'], 'source': 'obs', 'sunrise': '06:49:57', 'sunriseEpoch': 1694839797, 'sunset': '19:38:18', 'sunsetEpoch': 1694885898, 'moonphase': 0.05}}