2023-11-07
{'queryCost': 1, 'latitude': 62.469589051327446, 'longitude': 6.187329771213626, 'resolvedAddress': '62.469589051327446,6.187329771213626', 'address': '62.469589051327446,6.187329771213626', 'timezone': 'Europe/Oslo', 'tzoffset': 2.0, 'days': [{'datetime': '2023-04-17', 'datetimeEpoch': 1681682400, 'tempmax': 55.6, 'tempmin': 37.3, 'temp': 47.1, 'feelslikemax': 55.6, 'feelslikemin': 33.3, 'feelslike': 44.5, 'dew': 34.4, 'humidity': 63.8, 'precip': 0.0, 'precipprob': 0.0, 'precipcover': 0.0, 'preciptype': None, 'snow': 0.0, 'snowdepth': 0.0, 'windgust': 20.0, 'windspeed': 10.8, 'winddir': 100.9, 'pressure': 1033.1, 'cloudcover': 7.9, 'visibility': 6.2, 'solarradiation': 195.5, 'solarenergy': 16.9, 'uvindex': 5.0, 'sunrise': '06:04:50', 'sunriseEpoch': 1681704290, 'sunset': '21:06:53', 'sunsetEpoch': 1681758413, 'moonphase': 0.9, 'conditions': 'Clear', 'description': 'Clear conditions throughout the day.', 'icon': 'clear-day', 'stations': ['01210099999', '01209099999', 'ENAL', 'E1600', '01218099999', '01321099999'], 'source': 'obs'}], 'stations': {'01210099999': {'distance': 10859.0, 'latitude': 62.56, 'longitude': 6.11, 'useCount': 0, 'id': '01210099999', 'name': 'VIGRA, NO', 'quality': 50, 'contribution': 0.0}, '01209099999': {'distance': 32474.0, 'latitude': 62.183, 'longitude': 6.067, 'useCount': 0, 'id': '01209099999', 'name': 'ORSTA VOLDA HOVDEN, NO', 'quality': 27, 'contribution': 0.0}, 'ENAL': {'distance': 11701.0, 'latitude': 62.57, 'longitude': 6.12, 'useCount': 0, 'id': 'ENAL', 'name': 'ENAL', 'quality': 50, 'contribution': 0.0}, 'E1600': {'distance': 21624.0, 'latitude': 62.347, 'longitude': 5.862, 'useCount': 0, 'id': 'E1600', 'name': 'EW1600 Ulsteinvik NO', 'quality': 0, 'contribution': 0.0}, '01218099999': {'distance': 68735.0, 'latitude': 62.233, 'longitude': 7.417, 'useCount': 0, 'id': '01218099999', 'name': 'TAFJORD, NO', 'quality': 96, 'contribution': 0.0}, '01321099999': {'distance': 66145.0, 'latitude': 61.9, 'longitude': 6.55, 'useCount': 0, 'id': '01321099999', 'name': 'STRYN, NO', 'quality': 93, 'contribution': 0.0}}, 'currentConditions': {'datetime': '16:00:00', 'datetimeEpoch': 1681740000, 'temp': 55.6, 'feelslike': 55.6, 'humidity': 45.6, 'dew': 34.9, 'precip': 0.0, 'precipprob': 0.0, 'snow': 0.0, 'snowdepth': 0.0, 'preciptype': None, 'windgust': 5.8, 'windspeed': 7.6, 'winddir': 32.0, 'pressure': 1034.9, 'visibility': 6.2, 'cloudcover': 3.6, 'solarradiation': 470.0, 'solarenergy': 1.7, 'uvindex': 5.0, 'conditions': 'Clear', 'icon': 'clear-day', 'stations': ['01210099999', '01209099999', 'ENAL', '01218099999'], 'source': 'obs', 'sunrise': '06:04:50', 'sunriseEpoch': 1681704290, 'sunset': '21:06:53', 'sunsetEpoch': 1681758413, 'moonphase': 0.9}}