2023-11-07
{'queryCost': 1, 'latitude': 62.469589051327446, 'longitude': 6.187329771213626, 'resolvedAddress': '62.469589051327446,6.187329771213626', 'address': '62.469589051327446,6.187329771213626', 'timezone': 'Europe/Oslo', 'tzoffset': 2.0, 'days': [{'datetime': '2023-05-14', 'datetimeEpoch': 1684015200, 'tempmax': 61.6, 'tempmin': 43.3, 'temp': 51.4, 'feelslikemax': 61.6, 'feelslikemin': 41.2, 'feelslike': 50.6, 'dew': 44.5, 'humidity': 78.7, 'precip': 0.0, 'precipprob': 0.0, 'precipcover': 0.0, 'preciptype': None, 'snow': 0.0, 'snowdepth': 0.0, 'windgust': 25.1, 'windspeed': 10.8, 'winddir': 313.0, 'pressure': 1017.6, 'cloudcover': 65.8, 'visibility': 5.8, 'solarradiation': 214.0, 'solarenergy': 18.4, 'uvindex': 6.0, 'sunrise': '04:41:20', 'sunriseEpoch': 1684032080, 'sunset': '22:24:03', 'sunsetEpoch': 1684095843, 'moonphase': 0.81, 'conditions': 'Partially cloudy', 'description': 'Partly cloudy throughout the day.', 'icon': 'partly-cloudy-day', 'stations': ['01210099999', 'ENOV', '01209099999', 'ENAL', '01217099999', 'ENML', 'E1600', '01218099999'], 'source': 'obs'}], 'stations': {'01210099999': {'distance': 10859.0, 'latitude': 62.56, 'longitude': 6.11, 'useCount': 0, 'id': '01210099999', 'name': 'VIGRA, NO', 'quality': 50, 'contribution': 0.0}, 'ENOV': {'distance': 32803.0, 'latitude': 62.18, 'longitude': 6.07, 'useCount': 0, 'id': 'ENOV', 'name': 'ENOV', 'quality': 27, 'contribution': 0.0}, '01209099999': {'distance': 32474.0, 'latitude': 62.183, 'longitude': 6.067, 'useCount': 0, 'id': '01209099999', 'name': 'ORSTA VOLDA HOVDEN, NO', 'quality': 27, 'contribution': 0.0}, 'ENAL': {'distance': 11701.0, 'latitude': 62.57, 'longitude': 6.12, 'useCount': 0, 'id': 'ENAL', 'name': 'ENAL', 'quality': 50, 'contribution': 0.0}, '01217099999': {'distance': 63009.0, 'latitude': 62.745, 'longitude': 7.263, 'useCount': 0, 'id': '01217099999', 'name': 'ARO, NO', 'quality': 48, 'contribution': 0.0}, 'ENML': {'distance': 63628.0, 'latitude': 62.75, 'longitude': 7.27, 'useCount': 0, 'id': 'ENML', 'name': 'ENML', 'quality': 49, 'contribution': 0.0}, 'E1600': {'distance': 21624.0, 'latitude': 62.347, 'longitude': 5.862, 'useCount': 0, 'id': 'E1600', 'name': 'EW1600 Ulsteinvik NO', 'quality': 0, 'contribution': 0.0}, '01218099999': {'distance': 68735.0, 'latitude': 62.233, 'longitude': 7.417, 'useCount': 0, 'id': '01218099999', 'name': 'TAFJORD, NO', 'quality': 96, 'contribution': 0.0}}, 'currentConditions': {'datetime': '15:00:00', 'datetimeEpoch': 1684069200, 'temp': 57.7, 'feelslike': 57.7, 'humidity': 60.4, 'dew': 44.1, 'precip': 0.0, 'precipprob': 0.0, 'snow': 0.0, 'snowdepth': 0.0, 'preciptype': None, 'windgust': None, 'windspeed': 5.0, 'winddir': 310.0, 'pressure': 1015.9, 'visibility': 6.2, 'cloudcover': 100.0, 'solarradiation': 553.0, 'solarenergy': 2.0, 'uvindex': 6.0, 'conditions': 'Overcast', 'icon': 'cloudy', 'stations': ['01210099999', '01209099999', 'ENAL'], 'source': 'obs', 'sunrise': '04:41:20', 'sunriseEpoch': 1684032080, 'sunset': '22:24:03', 'sunsetEpoch': 1684095843, 'moonphase': 0.81}}