2023-11-07
{'queryCost': 1, 'latitude': 59.9249984454, 'longitude': 10.7323990904, 'resolvedAddress': '59.9249984454,10.7323990904', 'address': '59.9249984454,10.7323990904', 'timezone': 'Europe/Oslo', 'tzoffset': 2.0, 'days': [{'datetime': '2023-04-29', 'datetimeEpoch': 1682719200, 'tempmax': 48.4, 'tempmin': 31.8, 'temp': 41.6, 'feelslikemax': 45.9, 'feelslikemin': 24.8, 'feelslike': 37.0, 'dew': 26.5, 'humidity': 57.4, 'precip': 0.0, 'precipprob': 0.0, 'precipcover': 0.0, 'preciptype': None, 'snow': 0.0, 'snowdepth': 1.0, 'windgust': 44.7, 'windspeed': 15.5, 'winddir': 314.4, 'pressure': 1009.3, 'cloudcover': 63.5, 'visibility': 31.2, 'solarradiation': 190.2, 'solarenergy': 16.3, 'uvindex': 8.0, 'sunrise': '05:21:50', 'sunriseEpoch': 1682738510, 'sunset': '21:08:53', 'sunsetEpoch': 1682795333, 'moonphase': 0.3, 'conditions': 'Partially cloudy', 'description': 'Partly cloudy throughout the day.', 'icon': 'partly-cloudy-day', 'stations': ['01485099999', '01469099999', '01492099999', 'D9780', 'D1065', '01490099999', '01477099999', '01384099999', '01480099999', 'ENGM'], 'source': 'obs'}], 'stations': {'01485099999': {'distance': 44868.0, 'latitude': 59.617, 'longitude': 10.217, 'useCount': 0, 'id': '01485099999', 'name': 'DANDE GALLEBERG, NO', 'quality': 90, 'contribution': 0.0}, '01469099999': {'distance': 37985.0, 'latitude': 60.167, 'longitude': 10.25, 'useCount': 0, 'id': '01469099999', 'name': 'HONEFOSS HOYBY, NO', 'quality': 71, 'contribution': 0.0}, '01492099999': {'distance': 2918.0, 'latitude': 59.95, 'longitude': 10.717, 'useCount': 0, 'id': '01492099999', 'name': 'OSLO BLINDERN, NO', 'quality': 82, 'contribution': 0.0}, 'D9780': {'distance': 15011.0, 'latitude': 59.792, 'longitude': 10.695, 'useCount': 0, 'id': 'D9780', 'name': 'DW9780 Oslo NO', 'quality': 0, 'contribution': 0.0}, 'D1065': {'distance': 44012.0, 'latitude': 59.6, 'longitude': 11.18, 'useCount': 0, 'id': 'D1065', 'name': 'DW1065 Askim NO', 'quality': 0, 'contribution': 0.0}, '01490099999': {'distance': 7043.0, 'latitude': 59.983, 'longitude': 10.683, 'useCount': 0, 'id': '01490099999', 'name': 'TRYVANNSHOGDA, NO', 'quality': 94, 'contribution': 0.0}, '01477099999': {'distance': 39998.0, 'latitude': 59.717, 'longitude': 10.15, 'useCount': 0, 'id': '01477099999', 'name': 'KONNERUD, NO', 'quality': 93, 'contribution': 0.0}, '01384099999': {'distance': 36250.0, 'latitude': 60.194, 'longitude': 11.1, 'useCount': 0, 'id': '01384099999', 'name': 'GARDERMOEN, NO', 'quality': 99, 'contribution': 0.0}, '01480099999': {'distance': 38760.0, 'latitude': 59.75, 'longitude': 10.133, 'useCount': 0, 'id': '01480099999', 'name': 'DRAMMEN BERSKOG, NO', 'quality': 68, 'contribution': 0.0}, 'ENGM': {'distance': 36195.0, 'latitude': 60.2, 'longitude': 11.08, 'useCount': 0, 'id': 'ENGM', 'name': 'ENGM', 'quality': 50, 'contribution': 0.0}}, 'currentConditions': {'datetime': '15:00:00', 'datetimeEpoch': 1682773200, 'temp': 45.6, 'feelslike': 40.7, 'humidity': 69.5, 'dew': 36.1, 'precip': 0.0, 'precipprob': 0.0, 'snow': 0.0, 'snowdepth': 0.0, 'preciptype': None, 'windgust': 44.7, 'windspeed': 9.5, 'winddir': 3.0, 'pressure': 1007.8, 'visibility': 27.2, 'cloudcover': 90.0, 'solarradiation': 530.0, 'solarenergy': 1.9, 'uvindex': 5.0, 'conditions': 'Partially cloudy', 'icon': 'partly-cloudy-day', 'stations': ['01485099999', '01492099999', '01384099999'], 'source': 'obs', 'sunrise': '05:21:50', 'sunriseEpoch': 1682738510, 'sunset': '21:08:53', 'sunsetEpoch': 1682795333, 'moonphase': 0.3}}