2023-11-07
{'queryCost': 1, 'latitude': 59.91833341977906, 'longitude': 10.804731845855713, 'resolvedAddress': '59.91833341977906,10.804731845855713', 'address': '59.91833341977906,10.804731845855713', 'timezone': 'Europe/Oslo', 'tzoffset': 2.0, 'days': [{'datetime': '2023-07-05', 'datetimeEpoch': 1688508000, 'tempmax': 66.5, 'tempmin': 52.9, 'temp': 60.0, 'feelslikemax': 66.5, 'feelslikemin': 52.9, 'feelslike': 60.0, 'dew': 50.7, 'humidity': 73.3, 'precip': 0.033, 'precipprob': 100.0, 'precipcover': 4.17, 'preciptype': ['rain'], 'snow': 0.0, 'snowdepth': 0.0, 'windgust': 16.7, 'windspeed': 10.7, 'winddir': 153.8, 'pressure': 1005.0, 'cloudcover': 85.6, 'visibility': 27.6, 'solarradiation': 232.5, 'solarenergy': 20.2, 'uvindex': 8.0, 'sunrise': '04:04:18', 'sunriseEpoch': 1688522658, 'sunset': '22:37:35', 'sunsetEpoch': 1688589455, 'moonphase': 0.57, 'conditions': 'Rain, Partially cloudy', 'description': 'Partly cloudy throughout the day with morning rain.', 'icon': 'rain', 'stations': ['01485099999', '01469099999', 'ENRY', 'D9780', '01492099999', '01463099999', '01473099999', '01486099999', '01490099999', '01477099999', '01384099999', 'ENGM'], 'source': 'obs'}], 'stations': {'01469099999': {'distance': 41416.0, 'latitude': 60.167, 'longitude': 10.25, 'useCount': 0, 'id': '01469099999', 'name': 'HONEFOSS HOYBY, NO', 'quality': 71, 'contribution': 0.0}, 'D9780': {'distance': 15405.0, 'latitude': 59.792, 'longitude': 10.695, 'useCount': 0, 'id': 'D9780', 'name': 'DW9780 Oslo NO', 'quality': 0, 'contribution': 0.0}, '01492099999': {'distance': 6044.0, 'latitude': 59.95, 'longitude': 10.717, 'useCount': 0, 'id': '01492099999', 'name': 'OSLO BLINDERN, NO', 'quality': 82, 'contribution': 0.0}, '01463099999': {'distance': 29947.0, 'latitude': 59.65, 'longitude': 10.767, 'useCount': 0, 'id': '01463099999', 'name': 'AS, NO', 'quality': 67, 'contribution': 0.0}, '01473099999': {'distance': 73744.0, 'latitude': 59.617, 'longitude': 9.633, 'useCount': 0, 'id': '01473099999', 'name': 'KONGSBERG BRANNSTASJON, NO', 'quality': 72, 'contribution': 0.0}, '01477099999': {'distance': 42971.0, 'latitude': 59.717, 'longitude': 10.15, 'useCount': 0, 'id': '01477099999', 'name': 'KONNERUD, NO', 'quality': 93, 'contribution': 0.0}, '01384099999': {'distance': 34798.0, 'latitude': 60.194, 'longitude': 11.1, 'useCount': 0, 'id': '01384099999', 'name': 'GARDERMOEN, NO', 'quality': 99, 'contribution': 0.0}, 'ENGM': {'distance': 34886.0, 'latitude': 60.2, 'longitude': 11.08, 'useCount': 0, 'id': 'ENGM', 'name': 'ENGM', 'quality': 50, 'contribution': 0.0}, '01485099999': {'distance': 47051.0, 'latitude': 59.617, 'longitude': 10.217, 'useCount': 0, 'id': '01485099999', 'name': 'DANDE GALLEBERG, NO', 'quality': 90, 'contribution': 0.0}, 'ENRY': {'distance': 59943.0, 'latitude': 59.38, 'longitude': 10.78, 'useCount': 0, 'id': 'ENRY', 'name': 'ENRY', 'quality': 48, 'contribution': 0.0}, '01486099999': {'distance': 22097.0, 'latitude': 59.85, 'longitude': 10.433, 'useCount': 0, 'id': '01486099999', 'name': 'ASKER, NO', 'quality': 53, 'contribution': 0.0}, '01490099999': {'distance': 9906.0, 'latitude': 59.983, 'longitude': 10.683, 'useCount': 0, 'id': '01490099999', 'name': 'TRYVANNSHOGDA, NO', 'quality': 94, 'contribution': 0.0}}, 'currentConditions': {'datetime': '18:00:00', 'datetimeEpoch': 1688572800, 'temp': 63.9, 'feelslike': 63.9, 'humidity': 51.9, 'dew': 45.8, 'precip': 0.0, 'precipprob': 0.0, 'snow': 0.0, 'snowdepth': 0.0, 'preciptype': None, 'windgust': 12.8, 'windspeed': 9.6, 'winddir': 207.0, 'pressure': 1007.1, 'visibility': 23.7, 'cloudcover': 100.0, 'solarradiation': 292.0, 'solarenergy': 1.1, 'uvindex': 3.0, 'conditions': 'Overcast', 'icon': 'cloudy', 'stations': ['01485099999', '01492099999', '01490099999', '01477099999', '01384099999'], 'source': 'obs', 'sunrise': '04:04:18', 'sunriseEpoch': 1688522658, 'sunset': '22:37:35', 'sunsetEpoch': 1688589455, 'moonphase': 0.57}}