2023-11-07
{'queryCost': 1, 'latitude': 59.91833341977906, 'longitude': 10.804731845855713, 'resolvedAddress': '59.91833341977906,10.804731845855713', 'address': '59.91833341977906,10.804731845855713', 'timezone': 'Europe/Oslo', 'tzoffset': 2.0, 'days': [{'datetime': '2023-07-02', 'datetimeEpoch': 1688248800, 'tempmax': 61.8, 'tempmin': 55.0, 'temp': 59.0, 'feelslikemax': 61.8, 'feelslikemin': 55.0, 'feelslike': 59.0, 'dew': 53.9, 'humidity': 83.5, 'precip': 0.0, 'precipprob': 0.0, 'precipcover': 0.0, 'preciptype': None, 'snow': 0.0, 'snowdepth': 0.0, 'windgust': 20.3, 'windspeed': 11.0, 'winddir': 86.9, 'pressure': 988.8, 'cloudcover': 89.9, 'visibility': 20.7, 'solarradiation': 111.8, 'solarenergy': 9.6, 'uvindex': 4.0, 'sunrise': '04:00:39', 'sunriseEpoch': 1688263239, 'sunset': '22:40:19', 'sunsetEpoch': 1688330419, 'moonphase': 0.47, 'conditions': 'Partially cloudy', 'description': 'Partly cloudy throughout the day.', 'icon': 'partly-cloudy-day', 'stations': ['01485099999', '01469099999', 'ENRY', '01492099999', 'D9780', '01490099999', '01477099999', '01384099999', '01480099999', 'ENGM'], 'source': 'obs'}], 'stations': {'01485099999': {'distance': 47051.0, 'latitude': 59.617, 'longitude': 10.217, 'useCount': 0, 'id': '01485099999', 'name': 'DANDE GALLEBERG, NO', 'quality': 90, 'contribution': 0.0}, '01469099999': {'distance': 41416.0, 'latitude': 60.167, 'longitude': 10.25, 'useCount': 0, 'id': '01469099999', 'name': 'HONEFOSS HOYBY, NO', 'quality': 71, 'contribution': 0.0}, 'ENRY': {'distance': 59943.0, 'latitude': 59.38, 'longitude': 10.78, 'useCount': 0, 'id': 'ENRY', 'name': 'ENRY', 'quality': 48, 'contribution': 0.0}, '01492099999': {'distance': 6044.0, 'latitude': 59.95, 'longitude': 10.717, 'useCount': 0, 'id': '01492099999', 'name': 'OSLO BLINDERN, NO', 'quality': 82, 'contribution': 0.0}, 'D9780': {'distance': 15405.0, 'latitude': 59.792, 'longitude': 10.695, 'useCount': 0, 'id': 'D9780', 'name': 'DW9780 Oslo NO', 'quality': 0, 'contribution': 0.0}, '01490099999': {'distance': 9906.0, 'latitude': 59.983, 'longitude': 10.683, 'useCount': 0, 'id': '01490099999', 'name': 'TRYVANNSHOGDA, NO', 'quality': 94, 'contribution': 0.0}, '01477099999': {'distance': 42971.0, 'latitude': 59.717, 'longitude': 10.15, 'useCount': 0, 'id': '01477099999', 'name': 'KONNERUD, NO', 'quality': 93, 'contribution': 0.0}, '01384099999': {'distance': 34798.0, 'latitude': 60.194, 'longitude': 11.1, 'useCount': 0, 'id': '01384099999', 'name': 'GARDERMOEN, NO', 'quality': 99, 'contribution': 0.0}, '01480099999': {'distance': 41974.0, 'latitude': 59.75, 'longitude': 10.133, 'useCount': 0, 'id': '01480099999', 'name': 'DRAMMEN BERSKOG, NO', 'quality': 68, 'contribution': 0.0}, 'ENGM': {'distance': 34886.0, 'latitude': 60.2, 'longitude': 11.08, 'useCount': 0, 'id': 'ENGM', 'name': 'ENGM', 'quality': 50, 'contribution': 0.0}}, 'currentConditions': {'datetime': '15:00:00', 'datetimeEpoch': 1688302800, 'temp': 61.7, 'feelslike': 61.7, 'humidity': 80.5, 'dew': 55.7, 'precip': 0.0, 'precipprob': 0.0, 'snow': 0.0, 'snowdepth': 0.0, 'preciptype': None, 'windgust': 8.1, 'windspeed': 3.5, 'winddir': 78.0, 'pressure': 988.0, 'visibility': 27.3, 'cloudcover': 90.0, 'solarradiation': 78.0, 'solarenergy': 0.3, 'uvindex': 1.0, 'conditions': 'Partially cloudy', 'icon': 'partly-cloudy-day', 'stations': ['01485099999', '01492099999', '01384099999'], 'source': 'obs', 'sunrise': '04:00:39', 'sunriseEpoch': 1688263239, 'sunset': '22:40:19', 'sunsetEpoch': 1688330419, 'moonphase': 0.47}}