2023-11-07
{'queryCost': 1, 'latitude': 59.91833341977906, 'longitude': 10.804731845855713, 'resolvedAddress': '59.91833341977906,10.804731845855713', 'address': '59.91833341977906,10.804731845855713', 'timezone': 'Europe/Oslo', 'tzoffset': 2.0, 'days': [{'datetime': '2023-10-23', 'datetimeEpoch': 1698012000, 'tempmax': 44.7, 'tempmin': 33.8, 'temp': 38.4, 'feelslikemax': 44.7, 'feelslikemin': 25.9, 'feelslike': 34.3, 'dew': 36.4, 'humidity': 92.7, 'precip': 0.003, 'precipprob': 100.0, 'precipcover': 8.33, 'preciptype': ['rain'], 'snow': 0.0, 'snowdepth': 0.0, 'windgust': 14.9, 'windspeed': 10.2, 'winddir': 30.4, 'pressure': 1011.5, 'cloudcover': 91.7, 'visibility': 24.5, 'solarradiation': 28.8, 'solarenergy': 2.4, 'uvindex': 2.0, 'sunrise': '08:14:52', 'sunriseEpoch': 1698041692, 'sunset': '17:46:23', 'sunsetEpoch': 1698075983, 'moonphase': 0.31, 'conditions': 'Rain, Overcast', 'description': 'Cloudy skies throughout the day with rain clearing later.', 'icon': 'rain', 'stations': ['01485099999', 'D9780', '01492099999', '01490099999', '01477099999', '01384099999', '01489099999'], 'source': 'obs'}], 'stations': {'01485099999': {'distance': 47051.0, 'latitude': 59.617, 'longitude': 10.217, 'useCount': 0, 'id': '01485099999', 'name': 'DANDE GALLEBERG, NO', 'quality': 90, 'contribution': 0.0}, 'D9780': {'distance': 15405.0, 'latitude': 59.792, 'longitude': 10.695, 'useCount': 0, 'id': 'D9780', 'name': 'DW9780 Oslo NO', 'quality': 0, 'contribution': 0.0}, '01492099999': {'distance': 6044.0, 'latitude': 59.95, 'longitude': 10.717, 'useCount': 0, 'id': '01492099999', 'name': 'OSLO BLINDERN, NO', 'quality': 82, 'contribution': 0.0}, '01490099999': {'distance': 9906.0, 'latitude': 59.983, 'longitude': 10.683, 'useCount': 0, 'id': '01490099999', 'name': 'TRYVANNSHOGDA, NO', 'quality': 94, 'contribution': 0.0}, '01477099999': {'distance': 42971.0, 'latitude': 59.717, 'longitude': 10.15, 'useCount': 0, 'id': '01477099999', 'name': 'KONNERUD, NO', 'quality': 93, 'contribution': 0.0}, '01384099999': {'distance': 34798.0, 'latitude': 60.194, 'longitude': 11.1, 'useCount': 0, 'id': '01384099999', 'name': 'GARDERMOEN, NO', 'quality': 99, 'contribution': 0.0}, '01489099999': {'distance': 16142.0, 'latitude': 60.05, 'longitude': 10.683, 'useCount': 0, 'id': '01489099999', 'name': 'BJORNHOLT, NO', 'quality': 94, 'contribution': 0.0}}, 'currentConditions': {'datetime': '19:00:00', 'datetimeEpoch': 1698080400, 'temp': 39.4, 'feelslike': 36.0, 'humidity': 91.2, 'dew': 37.0, 'precip': 0.0, 'precipprob': 0.0, 'snow': 0.0, 'snowdepth': 0.0, 'preciptype': None, 'windgust': 9.4, 'windspeed': 4.7, 'winddir': 28.0, 'pressure': 1013.9, 'visibility': 30.3, 'cloudcover': 90.0, 'solarradiation': 0.0, 'solarenergy': 0.0, 'uvindex': 0.0, 'conditions': 'Partially cloudy', 'icon': 'partly-cloudy-night', 'stations': ['01485099999', '01492099999', '01490099999', '01477099999', '01384099999'], 'source': 'obs', 'sunrise': '08:14:52', 'sunriseEpoch': 1698041692, 'sunset': '17:46:23', 'sunsetEpoch': 1698075983, 'moonphase': 0.31}}