2023-11-07
{'queryCost': 1, 'latitude': 59.28686865815392, 'longitude': 5.246572494506837, 'resolvedAddress': '59.28686865815392,5.246572494506837', 'address': '59.28686865815392,5.246572494506837', 'timezone': 'Europe/Oslo', 'tzoffset': 2.0, 'days': [{'datetime': '2023-04-10', 'datetimeEpoch': 1681077600, 'tempmax': 49.8, 'tempmin': 44.7, 'temp': 47.0, 'feelslikemax': 41.9, 'feelslikemin': 36.0, 'feelslike': 39.4, 'dew': 37.2, 'humidity': 68.9, 'precip': 0.005, 'precipprob': 100.0, 'precipcover': 4.17, 'preciptype': ['rain'], 'snow': 0.0, 'snowdepth': 0.0, 'windgust': 44.0, 'windspeed': 32.0, 'winddir': 130.8, 'pressure': 1011.8, 'cloudcover': 81.1, 'visibility': 6.2, 'solarradiation': 127.8, 'solarenergy': 11.2, 'uvindex': 5.0, 'sunrise': '06:40:00', 'sunriseEpoch': 1681101600, 'sunset': '20:42:23', 'sunsetEpoch': 1681152143, 'moonphase': 0.65, 'conditions': 'Rain, Partially cloudy', 'description': 'Partly cloudy throughout the day with morning rain.', 'icon': 'rain', 'stations': ['01415099999', '01412099999', '01411099999', 'ENHD', '01408099999', 'C9988', '01413099999', '01403099999', '01419099999'], 'source': 'obs'}], 'stations': {'01415099999': {'distance': 50848.0, 'latitude': 58.877, 'longitude': 5.638, 'useCount': 0, 'id': '01415099999', 'name': 'SOLA, NO', 'quality': 99, 'contribution': 0.0}, '01412099999': {'distance': 73237.0, 'latitude': 58.65, 'longitude': 5.567, 'useCount': 0, 'id': '01412099999', 'name': 'OBRESTAD, NO', 'quality': 95, 'contribution': 0.0}, '01411099999': {'distance': 26360.0, 'latitude': 59.067, 'longitude': 5.417, 'useCount': 0, 'id': '01411099999', 'name': 'KVITSOY NORDBO, NO', 'quality': 54, 'contribution': 0.0}, 'ENHD': {'distance': 7188.0, 'latitude': 59.35, 'longitude': 5.22, 'useCount': 0, 'id': 'ENHD', 'name': 'ENHD', 'quality': 50, 'contribution': 0.0}, '01408099999': {'distance': 6857.0, 'latitude': 59.345, 'longitude': 5.208, 'useCount': 0, 'id': '01408099999', 'name': 'KARMOY, NO', 'quality': 50, 'contribution': 0.0}, 'C9988': {'distance': 59360.0, 'latitude': 58.82, 'longitude': 5.747, 'useCount': 0, 'id': 'C9988', 'name': 'CW9988 Sandnes NO', 'quality': 0, 'contribution': 0.0}, '01413099999': {'distance': 64079.0, 'latitude': 58.75, 'longitude': 5.65, 'useCount': 0, 'id': '01413099999', 'name': 'SAERHEIM, NO', 'quality': 89, 'contribution': 0.0}, '01403099999': {'distance': 21645.0, 'latitude': 59.3, 'longitude': 4.867, 'useCount': 0, 'id': '01403099999', 'name': 'UTSIRA FYR, NO', 'quality': 78, 'contribution': 0.0}, '01419099999': {'distance': 56209.0, 'latitude': 59.05, 'longitude': 6.117, 'useCount': 0, 'id': '01419099999', 'name': 'LIARVATN, NO', 'quality': 96, 'contribution': 0.0}}, 'currentConditions': {'datetime': '15:00:00', 'datetimeEpoch': 1681131600, 'temp': 49.8, 'feelslike': 41.7, 'humidity': 58.9, 'dew': 36.0, 'precip': 0.0, 'precipprob': 0.0, 'snow': 0.0, 'snowdepth': 0.0, 'preciptype': None, 'windgust': 45.4, 'windspeed': 31.0, 'winddir': 131.0, 'pressure': 1008.9, 'visibility': 6.2, 'cloudcover': 50.0, 'solarradiation': 405.0, 'solarenergy': 1.5, 'uvindex': 4.0, 'conditions': 'Partially cloudy', 'icon': 'wind', 'stations': ['01415099999', '01408099999', '01403099999'], 'source': 'obs', 'sunrise': '06:40:00', 'sunriseEpoch': 1681101600, 'sunset': '20:42:23', 'sunsetEpoch': 1681152143, 'moonphase': 0.65}}