2023-11-07
{'queryCost': 1, 'latitude': 62.59438575605608, 'longitude': 6.435639381429912, 'resolvedAddress': '62.59438575605608,6.435639381429912', 'address': '62.59438575605608,6.435639381429912', 'timezone': 'Europe/Oslo', 'tzoffset': 2.0, 'days': [{'datetime': '2023-06-18', 'datetimeEpoch': 1687039200, 'tempmax': 63.8, 'tempmin': 48.9, 'temp': 55.2, 'feelslikemax': 63.8, 'feelslikemin': 44.0, 'feelslike': 54.7, 'dew': 51.3, 'humidity': 87.3, 'precip': 0.0, 'precipprob': 0.0, 'precipcover': 0.0, 'preciptype': None, 'snow': 0.0, 'snowdepth': 0.0, 'windgust': 21.9, 'windspeed': 15.5, 'winddir': 49.2, 'pressure': 1015.6, 'cloudcover': 79.9, 'visibility': 4.5, 'solarradiation': 270.7, 'solarenergy': 18.5, 'uvindex': 6.0, 'sunrise': '03:34:06', 'sunriseEpoch': 1687052046, 'sunset': '23:37:02', 'sunsetEpoch': 1687124222, 'moonphase': 0.0, 'conditions': 'Partially cloudy', 'description': 'Partly cloudy throughout the day.', 'icon': 'partly-cloudy-day', 'stations': ['01210099999', '01209099999', 'ENAL', '01217099999', 'ENML', 'E1600', '01218099999', '01212099999', '01232099999', '01321099999', '01224099999'], 'source': 'obs'}], 'stations': {'01210099999': {'distance': 17110.0, 'latitude': 62.56, 'longitude': 6.11, 'useCount': 0, 'id': '01210099999', 'name': 'VIGRA, NO', 'quality': 50, 'contribution': 0.0}, '01209099999': {'distance': 49563.0, 'latitude': 62.183, 'longitude': 6.067, 'useCount': 0, 'id': '01209099999', 'name': 'ORSTA VOLDA HOVDEN, NO', 'quality': 27, 'contribution': 0.0}, 'ENAL': {'distance': 16406.0, 'latitude': 62.57, 'longitude': 6.12, 'useCount': 0, 'id': 'ENAL', 'name': 'ENAL', 'quality': 50, 'contribution': 0.0}, '01217099999': {'distance': 45452.0, 'latitude': 62.745, 'longitude': 7.263, 'useCount': 0, 'id': '01217099999', 'name': 'ARO, NO', 'quality': 48, 'contribution': 0.0}, 'ENML': {'distance': 46024.0, 'latitude': 62.75, 'longitude': 7.27, 'useCount': 0, 'id': 'ENML', 'name': 'ENML', 'quality': 49, 'contribution': 0.0}, 'E1600': {'distance': 40367.0, 'latitude': 62.347, 'longitude': 5.862, 'useCount': 0, 'id': 'E1600', 'name': 'EW1600 Ulsteinvik NO', 'quality': 0, 'contribution': 0.0}, '01218099999': {'distance': 64600.0, 'latitude': 62.233, 'longitude': 7.417, 'useCount': 0, 'id': '01218099999', 'name': 'TAFJORD, NO', 'quality': 96, 'contribution': 0.0}, '01212099999': {'distance': 30721.0, 'latitude': 62.867, 'longitude': 6.533, 'useCount': 0, 'id': '01212099999', 'name': 'ONA II, NO', 'quality': 19, 'contribution': 0.0}, '01232099999': {'distance': 74402.0, 'latitude': 62.45, 'longitude': 7.85, 'useCount': 0, 'id': '01232099999', 'name': 'VINJEORA II, NO', 'quality': 95, 'contribution': 0.0}, '01321099999': {'distance': 77526.0, 'latitude': 61.9, 'longitude': 6.55, 'useCount': 0, 'id': '01321099999', 'name': 'STRYN, NO', 'quality': 93, 'contribution': 0.0}, '01224099999': {'distance': 18123.0, 'latitude': 62.467, 'longitude': 6.217, 'useCount': 0, 'id': '01224099999', 'name': 'AALESUND, NO', 'quality': 29, 'contribution': 0.0}}, 'currentConditions': {'datetime': '16:00:00', 'datetimeEpoch': 1687096800, 'temp': 59.4, 'feelslike': 59.4, 'humidity': 76.0, 'dew': 51.8, 'precip': 0.0, 'precipprob': 0.0, 'snow': 0.0, 'snowdepth': 0.0, 'preciptype': None, 'windgust': 2.7, 'windspeed': 8.9, 'winddir': 38.0, 'pressure': 1015.0, 'visibility': 6.2, 'cloudcover': 100.0, 'solarradiation': 491.0, 'solarenergy': 1.8, 'uvindex': 5.0, 'conditions': 'Overcast', 'icon': 'cloudy', 'stations': ['01210099999', 'ENAL', '01218099999'], 'source': 'obs', 'sunrise': '03:34:06', 'sunriseEpoch': 1687052046, 'sunset': '23:37:02', 'sunsetEpoch': 1687124222, 'moonphase': 0.0}}