2023-11-07
{'queryCost': 1, 'latitude': 62.59438575605608, 'longitude': 6.435639381429912, 'resolvedAddress': '62.59438575605608,6.435639381429912', 'address': '62.59438575605608,6.435639381429912', 'timezone': 'Europe/Oslo', 'tzoffset': 2.0, 'days': [{'datetime': '2023-10-08', 'datetimeEpoch': 1696716000, 'tempmax': 45.7, 'tempmin': 40.4, 'temp': 43.0, 'feelslikemax': 40.2, 'feelslikemin': 34.6, 'feelslike': 37.4, 'dew': 35.6, 'humidity': 75.3, 'precip': 0.382, 'precipprob': 100.0, 'precipcover': 4.17, 'preciptype': ['rain'], 'snow': 0.0, 'snowdepth': 0.0, 'windgust': 34.5, 'windspeed': 13.1, 'winddir': 279.6, 'pressure': 1023.6, 'cloudcover': 85.5, 'visibility': 6.2, 'solarradiation': 25.5, 'solarenergy': 2.1, 'uvindex': 1.0, 'sunrise': '07:59:41', 'sunriseEpoch': 1696744781, 'sunset': '18:42:49', 'sunsetEpoch': 1696783369, 'moonphase': 0.79, 'conditions': 'Rain, Partially cloudy', 'description': 'Partly cloudy throughout the day with morning rain.', 'icon': 'rain', 'stations': ['01210099999', '01220099999', '01209099999', 'ENAL', '01217099999', 'ENML', 'E1600', '01218099999', '01232099999', '01212099999', '01321099999', '01224099999'], 'source': 'obs'}], 'stations': {'01210099999': {'distance': 17110.0, 'latitude': 62.56, 'longitude': 6.11, 'useCount': 0, 'id': '01210099999', 'name': 'VIGRA, NO', 'quality': 50, 'contribution': 0.0}, '01220099999': {'distance': 70229.0, 'latitude': 62.45, 'longitude': 7.767, 'useCount': 0, 'id': '01220099999', 'name': 'MANNEN, NO', 'quality': 91, 'contribution': 0.0}, '01217099999': {'distance': 45452.0, 'latitude': 62.745, 'longitude': 7.263, 'useCount': 0, 'id': '01217099999', 'name': 'ARO, NO', 'quality': 48, 'contribution': 0.0}, 'ENML': {'distance': 46024.0, 'latitude': 62.75, 'longitude': 7.27, 'useCount': 0, 'id': 'ENML', 'name': 'ENML', 'quality': 49, 'contribution': 0.0}, 'E1600': {'distance': 40367.0, 'latitude': 62.347, 'longitude': 5.862, 'useCount': 0, 'id': 'E1600', 'name': 'EW1600 Ulsteinvik NO', 'quality': 0, 'contribution': 0.0}, '01218099999': {'distance': 64600.0, 'latitude': 62.233, 'longitude': 7.417, 'useCount': 0, 'id': '01218099999', 'name': 'TAFJORD, NO', 'quality': 96, 'contribution': 0.0}, '01224099999': {'distance': 18123.0, 'latitude': 62.467, 'longitude': 6.217, 'useCount': 0, 'id': '01224099999', 'name': 'AALESUND, NO', 'quality': 29, 'contribution': 0.0}, '01209099999': {'distance': 49563.0, 'latitude': 62.183, 'longitude': 6.067, 'useCount': 0, 'id': '01209099999', 'name': 'ORSTA VOLDA HOVDEN, NO', 'quality': 27, 'contribution': 0.0}, 'ENAL': {'distance': 16406.0, 'latitude': 62.57, 'longitude': 6.12, 'useCount': 0, 'id': 'ENAL', 'name': 'ENAL', 'quality': 50, 'contribution': 0.0}, '01232099999': {'distance': 74402.0, 'latitude': 62.45, 'longitude': 7.85, 'useCount': 0, 'id': '01232099999', 'name': 'VINJEORA II, NO', 'quality': 95, 'contribution': 0.0}, '01212099999': {'distance': 30721.0, 'latitude': 62.867, 'longitude': 6.533, 'useCount': 0, 'id': '01212099999', 'name': 'ONA II, NO', 'quality': 19, 'contribution': 0.0}, '01321099999': {'distance': 77526.0, 'latitude': 61.9, 'longitude': 6.55, 'useCount': 0, 'id': '01321099999', 'name': 'STRYN, NO', 'quality': 93, 'contribution': 0.0}}, 'currentConditions': {'datetime': '15:00:00', 'datetimeEpoch': 1696770000, 'temp': 45.7, 'feelslike': 40.2, 'humidity': 68.9, 'dew': 36.1, 'precip': 0.0, 'precipprob': 0.0, 'snow': 0.0, 'snowdepth': 0.0, 'preciptype': None, 'windgust': None, 'windspeed': 11.5, 'winddir': 268.0, 'pressure': 1024.0, 'visibility': 6.2, 'cloudcover': 89.5, 'solarradiation': 55.0, 'solarenergy': 0.2, 'uvindex': 1.0, 'conditions': 'Partially cloudy', 'icon': 'partly-cloudy-day', 'stations': ['01210099999', '01209099999', 'ENAL', '01217099999', 'ENML'], 'source': 'obs', 'sunrise': '07:59:41', 'sunriseEpoch': 1696744781, 'sunset': '18:42:49', 'sunsetEpoch': 1696783369, 'moonphase': 0.79}}