2023-11-07
{'queryCost': 1, 'latitude': 62.59438575605608, 'longitude': 6.435639381429912, 'resolvedAddress': '62.59438575605608,6.435639381429912', 'address': '62.59438575605608,6.435639381429912', 'timezone': 'Europe/Oslo', 'tzoffset': 2.0, 'days': [{'datetime': '2023-09-24', 'datetimeEpoch': 1695506400, 'tempmax': 57.1, 'tempmin': 49.5, 'temp': 52.9, 'feelslikemax': 57.1, 'feelslikemin': 42.3, 'feelslike': 51.7, 'dew': 42.0, 'humidity': 67.4, 'precip': 0.016, 'precipprob': 100.0, 'precipcover': 4.17, 'preciptype': ['rain'], 'snow': 0.0, 'snowdepth': 0.0, 'windgust': 32.2, 'windspeed': 24.0, 'winddir': 207.0, 'pressure': 1011.3, 'cloudcover': 76.7, 'visibility': 6.2, 'solarradiation': 70.3, 'solarenergy': 5.8, 'uvindex': 4.0, 'sunrise': '07:22:01', 'sunriseEpoch': 1695532921, 'sunset': '19:29:20', 'sunsetEpoch': 1695576560, 'moonphase': 0.33, 'conditions': 'Rain, Partially cloudy', 'description': 'Partly cloudy throughout the day with early morning rain.', 'icon': 'rain', 'stations': ['01210099999', '01209099999', 'ENAL', '01217099999', 'ENML', 'E1600', '01218099999', '01212099999', '01321099999'], 'source': 'obs'}], 'stations': {'01210099999': {'distance': 17110.0, 'latitude': 62.56, 'longitude': 6.11, 'useCount': 0, 'id': '01210099999', 'name': 'VIGRA, NO', 'quality': 50, 'contribution': 0.0}, '01209099999': {'distance': 49563.0, 'latitude': 62.183, 'longitude': 6.067, 'useCount': 0, 'id': '01209099999', 'name': 'ORSTA VOLDA HOVDEN, NO', 'quality': 27, 'contribution': 0.0}, 'ENAL': {'distance': 16406.0, 'latitude': 62.57, 'longitude': 6.12, 'useCount': 0, 'id': 'ENAL', 'name': 'ENAL', 'quality': 50, 'contribution': 0.0}, '01217099999': {'distance': 45452.0, 'latitude': 62.745, 'longitude': 7.263, 'useCount': 0, 'id': '01217099999', 'name': 'ARO, NO', 'quality': 48, 'contribution': 0.0}, 'ENML': {'distance': 46024.0, 'latitude': 62.75, 'longitude': 7.27, 'useCount': 0, 'id': 'ENML', 'name': 'ENML', 'quality': 49, 'contribution': 0.0}, 'E1600': {'distance': 40367.0, 'latitude': 62.347, 'longitude': 5.862, 'useCount': 0, 'id': 'E1600', 'name': 'EW1600 Ulsteinvik NO', 'quality': 0, 'contribution': 0.0}, '01218099999': {'distance': 64600.0, 'latitude': 62.233, 'longitude': 7.417, 'useCount': 0, 'id': '01218099999', 'name': 'TAFJORD, NO', 'quality': 96, 'contribution': 0.0}, '01212099999': {'distance': 30721.0, 'latitude': 62.867, 'longitude': 6.533, 'useCount': 0, 'id': '01212099999', 'name': 'ONA II, NO', 'quality': 19, 'contribution': 0.0}, '01321099999': {'distance': 77526.0, 'latitude': 61.9, 'longitude': 6.55, 'useCount': 0, 'id': '01321099999', 'name': 'STRYN, NO', 'quality': 93, 'contribution': 0.0}}, 'currentConditions': {'datetime': '16:00:00', 'datetimeEpoch': 1695564000, 'temp': 57.1, 'feelslike': 57.1, 'humidity': 47.9, 'dew': 37.5, 'precip': 0.0, 'precipprob': 0.0, 'snow': 0.0, 'snowdepth': 0.0, 'preciptype': None, 'windgust': 2.7, 'windspeed': 11.1, 'winddir': 156.0, 'pressure': 1013.0, 'visibility': 6.2, 'cloudcover': 89.0, 'solarradiation': 64.0, 'solarenergy': 0.2, 'uvindex': 1.0, 'conditions': 'Partially cloudy', 'icon': 'partly-cloudy-day', 'stations': ['01210099999', 'ENAL', '01218099999'], 'source': 'obs', 'sunrise': '07:22:01', 'sunriseEpoch': 1695532921, 'sunset': '19:29:20', 'sunsetEpoch': 1695576560, 'moonphase': 0.33}}