2023-11-07
{'queryCost': 1, 'latitude': 62.59438575605608, 'longitude': 6.435639381429912, 'resolvedAddress': '62.59438575605608,6.435639381429912', 'address': '62.59438575605608,6.435639381429912', 'timezone': 'Europe/Oslo', 'tzoffset': 2.0, 'days': [{'datetime': '2023-05-14', 'datetimeEpoch': 1684015200, 'tempmax': 62.0, 'tempmin': 43.1, 'temp': 51.1, 'feelslikemax': 62.0, 'feelslikemin': 40.5, 'feelslike': 50.1, 'dew': 44.6, 'humidity': 79.8, 'precip': 0.0, 'precipprob': 0.0, 'precipcover': 0.0, 'preciptype': None, 'snow': 0.0, 'snowdepth': 0.0, 'windgust': 20.1, 'windspeed': 10.4, 'winddir': 306.8, 'pressure': 1017.7, 'cloudcover': 51.8, 'visibility': 5.7, 'solarradiation': 214.0, 'solarenergy': 18.4, 'uvindex': 6.0, 'sunrise': '04:39:13', 'sunriseEpoch': 1684031953, 'sunset': '22:24:12', 'sunsetEpoch': 1684095852, 'moonphase': 0.81, 'conditions': 'Partially cloudy', 'description': 'Partly cloudy throughout the day.', 'icon': 'partly-cloudy-day', 'stations': ['01210099999', '01209099999', 'ENAL', '01217099999', 'ENML', 'E1600', '01218099999', '01212099999'], 'source': 'obs'}], 'stations': {'01210099999': {'distance': 17110.0, 'latitude': 62.56, 'longitude': 6.11, 'useCount': 0, 'id': '01210099999', 'name': 'VIGRA, NO', 'quality': 50, 'contribution': 0.0}, '01209099999': {'distance': 49563.0, 'latitude': 62.183, 'longitude': 6.067, 'useCount': 0, 'id': '01209099999', 'name': 'ORSTA VOLDA HOVDEN, NO', 'quality': 27, 'contribution': 0.0}, 'ENAL': {'distance': 16406.0, 'latitude': 62.57, 'longitude': 6.12, 'useCount': 0, 'id': 'ENAL', 'name': 'ENAL', 'quality': 50, 'contribution': 0.0}, '01217099999': {'distance': 45452.0, 'latitude': 62.745, 'longitude': 7.263, 'useCount': 0, 'id': '01217099999', 'name': 'ARO, NO', 'quality': 48, 'contribution': 0.0}, 'ENML': {'distance': 46024.0, 'latitude': 62.75, 'longitude': 7.27, 'useCount': 0, 'id': 'ENML', 'name': 'ENML', 'quality': 49, 'contribution': 0.0}, 'E1600': {'distance': 40367.0, 'latitude': 62.347, 'longitude': 5.862, 'useCount': 0, 'id': 'E1600', 'name': 'EW1600 Ulsteinvik NO', 'quality': 0, 'contribution': 0.0}, '01218099999': {'distance': 64600.0, 'latitude': 62.233, 'longitude': 7.417, 'useCount': 0, 'id': '01218099999', 'name': 'TAFJORD, NO', 'quality': 96, 'contribution': 0.0}, '01212099999': {'distance': 30721.0, 'latitude': 62.867, 'longitude': 6.533, 'useCount': 0, 'id': '01212099999', 'name': 'ONA II, NO', 'quality': 19, 'contribution': 0.0}}, 'currentConditions': {'datetime': '15:00:00', 'datetimeEpoch': 1684069200, 'temp': 58.2, 'feelslike': 58.2, 'humidity': 60.5, 'dew': 44.6, 'precip': 0.0, 'precipprob': 0.0, 'snow': 0.0, 'snowdepth': 0.0, 'preciptype': None, 'windgust': 8.7, 'windspeed': 5.3, 'winddir': 300.0, 'pressure': 1016.0, 'visibility': 6.2, 'cloudcover': 27.5, 'solarradiation': 553.0, 'solarenergy': 2.0, 'uvindex': 6.0, 'conditions': 'Partially cloudy', 'icon': 'partly-cloudy-day', 'stations': ['01210099999', 'ENAL', '01217099999', 'ENML', '01212099999'], 'source': 'obs', 'sunrise': '04:39:13', 'sunriseEpoch': 1684031953, 'sunset': '22:24:12', 'sunsetEpoch': 1684095852, 'moonphase': 0.81}}