2023-11-07
{'queryCost': 1, 'latitude': 58.0879101951, 'longitude': 7.99772638463, 'resolvedAddress': '58.0879101951,7.99772638463', 'address': '58.0879101951,7.99772638463', 'timezone': 'Europe/Oslo', 'tzoffset': 2.0, 'days': [{'datetime': '2023-06-04', 'datetimeEpoch': 1685829600, 'tempmax': 59.3, 'tempmin': 50.3, 'temp': 55.0, 'feelslikemax': 59.3, 'feelslikemin': 50.3, 'feelslike': 55.0, 'dew': 48.6, 'humidity': 79.5, 'precip': 0.0, 'precipprob': 0.0, 'precipcover': 0.0, 'preciptype': None, 'snow': 0.0, 'snowdepth': 0.0, 'windgust': 25.5, 'windspeed': 21.8, 'winddir': 81.6, 'pressure': 1021.9, 'cloudcover': 6.6, 'visibility': 6.2, 'solarradiation': 267.5, 'solarenergy': 23.1, 'uvindex': 8.0, 'sunrise': '04:31:26', 'sunriseEpoch': 1685845886, 'sunset': '22:22:11', 'sunsetEpoch': 1685910131, 'moonphase': 0.5, 'conditions': 'Clear', 'description': 'Clear conditions throughout the day.', 'icon': 'clear-day', 'stations': ['C0565', 'ENCN', '01448099999', '01452099999', '01464099999', '01465099999', '01430099999'], 'source': 'obs'}], 'stations': {'C0565': {'distance': 19829.0, 'latitude': 58.265, 'longitude': 7.954, 'useCount': 0, 'id': 'C0565', 'name': 'CW0565 Kristiansand NO', 'quality': 0, 'contribution': 0.0}, 'ENCN': {'distance': 13381.0, 'latitude': 58.2, 'longitude': 8.08, 'useCount': 0, 'id': 'ENCN', 'name': 'ENCN', 'quality': 50, 'contribution': 0.0}, '01448099999': {'distance': 3878.0, 'latitude': 58.067, 'longitude': 8.05, 'useCount': 0, 'id': '01448099999', 'name': 'OKSOY FYR, NO', 'quality': 33, 'contribution': 0.0}, '01452099999': {'distance': 13932.0, 'latitude': 58.204, 'longitude': 8.085, 'useCount': 0, 'id': '01452099999', 'name': 'KJEVIK, NO', 'quality': 49, 'contribution': 0.0}, '01464099999': {'distance': 40894.0, 'latitude': 58.333, 'longitude': 8.517, 'useCount': 0, 'id': '01464099999', 'name': 'LANDVIK, NO', 'quality': 89, 'contribution': 0.0}, '01465099999': {'distance': 57666.0, 'latitude': 58.4, 'longitude': 8.783, 'useCount': 0, 'id': '01465099999', 'name': 'TORUNGEN FYR, NO', 'quality': 94, 'contribution': 0.0}, '01430099999': {'distance': 33223.0, 'latitude': 58.017, 'longitude': 7.45, 'useCount': 0, 'id': '01430099999', 'name': 'MANDAL II, NO', 'quality': 63, 'contribution': 0.0}}, 'currentConditions': {'datetime': '16:00:00', 'datetimeEpoch': 1685887200, 'temp': 58.7, 'feelslike': 58.7, 'humidity': 76.8, 'dew': 51.5, 'precip': 0.0, 'precipprob': 0.0, 'snow': 0.0, 'snowdepth': 0.0, 'preciptype': None, 'windgust': 11.2, 'windspeed': 9.5, 'winddir': 136.0, 'pressure': 1023.8, 'visibility': 6.2, 'cloudcover': 0.0, 'solarradiation': 703.0, 'solarenergy': 2.5, 'uvindex': 7.0, 'conditions': 'Clear', 'icon': 'clear-day', 'stations': ['ENCN', '01448099999', '01464099999', '01452099999', '01465099999'], 'source': 'obs', 'sunrise': '04:31:26', 'sunriseEpoch': 1685845886, 'sunset': '22:22:11', 'sunsetEpoch': 1685910131, 'moonphase': 0.5}}