2023-11-07
{'queryCost': 1, 'latitude': 58.0879101951, 'longitude': 7.99772638463, 'resolvedAddress': '58.0879101951,7.99772638463', 'address': '58.0879101951,7.99772638463', 'timezone': 'Europe/Oslo', 'tzoffset': 2.0, 'days': [{'datetime': '2023-10-29', 'datetimeEpoch': 1698530400, 'tempmax': 37.5, 'tempmin': 32.1, 'temp': 34.7, 'feelslikemax': 24.3, 'feelslikemin': 19.9, 'feelslike': 22.7, 'dew': 32.3, 'humidity': 90.7, 'precip': 0.406, 'precipprob': 100.0, 'precipcover': 29.17, 'preciptype': ['rain', 'snow'], 'snow': 0.0, 'snowdepth': 0.0, 'windgust': 48.1, 'windspeed': 34.0, 'winddir': 40.8, 'pressure': 998.2, 'cloudcover': 91.8, 'visibility': 4.4, 'solarradiation': 15.9, 'solarenergy': 1.3, 'uvindex': 1.0, 'sunrise': '07:34:36', 'sunriseEpoch': 1698561276, 'sunset': '16:47:58', 'sunsetEpoch': 1698594478, 'moonphase': 0.52, 'conditions': 'Snow, Rain, Overcast', 'description': 'Cloudy skies throughout the day with rain or snow.', 'icon': 'rain', 'stations': ['C0565', 'ENCN', '01448099999', '01464099999', '01452099999', '01465099999', 'AU913', '01430099999'], 'source': 'obs'}], 'stations': {'C0565': {'distance': 19829.0, 'latitude': 58.265, 'longitude': 7.954, 'useCount': 0, 'id': 'C0565', 'name': 'CW0565 Kristiansand NO', 'quality': 0, 'contribution': 0.0}, 'ENCN': {'distance': 13381.0, 'latitude': 58.2, 'longitude': 8.08, 'useCount': 0, 'id': 'ENCN', 'name': 'ENCN', 'quality': 50, 'contribution': 0.0}, '01448099999': {'distance': 3878.0, 'latitude': 58.067, 'longitude': 8.05, 'useCount': 0, 'id': '01448099999', 'name': 'OKSOY FYR, NO', 'quality': 33, 'contribution': 0.0}, '01464099999': {'distance': 40894.0, 'latitude': 58.333, 'longitude': 8.517, 'useCount': 0, 'id': '01464099999', 'name': 'LANDVIK, NO', 'quality': 89, 'contribution': 0.0}, '01452099999': {'distance': 13932.0, 'latitude': 58.204, 'longitude': 8.085, 'useCount': 0, 'id': '01452099999', 'name': 'KJEVIK, NO', 'quality': 49, 'contribution': 0.0}, '01465099999': {'distance': 57666.0, 'latitude': 58.4, 'longitude': 8.783, 'useCount': 0, 'id': '01465099999', 'name': 'TORUNGEN FYR, NO', 'quality': 94, 'contribution': 0.0}, 'AU913': {'distance': 59092.0, 'latitude': 58.022, 'longitude': 7.002, 'useCount': 0, 'id': 'AU913', 'name': 'LA5NNA Lyngdal NO', 'quality': 0, 'contribution': 0.0}, '01430099999': {'distance': 33223.0, 'latitude': 58.017, 'longitude': 7.45, 'useCount': 0, 'id': '01430099999', 'name': 'MANDAL II, NO', 'quality': 63, 'contribution': 0.0}}, 'currentConditions': {'datetime': '16:00:00', 'datetimeEpoch': 1698591600, 'tzoffset': 1.0, 'temp': 37.5, 'feelslike': 24.3, 'humidity': 92.2, 'dew': 35.4, 'precip': 0.0, 'precipprob': 0.0, 'snow': 0.0, 'snowdepth': 0.0, 'preciptype': None, 'windgust': 48.1, 'windspeed': 34.0, 'winddir': 50.0, 'pressure': 993.8, 'visibility': 6.2, 'cloudcover': 89.0, 'solarradiation': 14.0, 'solarenergy': 0.1, 'uvindex': 0.0, 'conditions': 'Partially cloudy', 'icon': 'wind', 'stations': ['C0565', 'ENCN', '01448099999', '01464099999', '01452099999', '01465099999'], 'source': 'obs', 'sunrise': '07:34:36', 'sunriseEpoch': 1698561276, 'sunset': '16:47:58', 'sunsetEpoch': 1698594478, 'moonphase': 0.52}}