2023-11-07
{'queryCost': 1, 'latitude': 59.4193044448, 'longitude': 10.4873698493, 'resolvedAddress': '59.4193044448,10.4873698493', 'address': '59.4193044448,10.4873698493', 'timezone': 'Europe/Oslo', 'tzoffset': 2.0, 'days': [{'datetime': '2023-04-29', 'datetimeEpoch': 1682719200, 'tempmax': 44.3, 'tempmin': 35.5, 'temp': 41.0, 'feelslikemax': 36.7, 'feelslikemin': 24.9, 'feelslike': 31.7, 'dew': 29.7, 'humidity': 65.3, 'precip': 0.0, 'precipprob': 0.0, 'precipcover': 0.0, 'preciptype': None, 'snow': 0.0, 'snowdepth': 0.0, 'windgust': 33.0, 'windspeed': 26.3, 'winddir': 312.7, 'pressure': 1012.8, 'cloudcover': 78.6, 'visibility': 6.3, 'solarradiation': 236.9, 'solarenergy': 20.5, 'uvindex': 8.0, 'sunrise': '05:25:13', 'sunriseEpoch': 1682738713, 'sunset': '21:07:25', 'sunsetEpoch': 1682795245, 'moonphase': 0.3, 'conditions': 'Partially cloudy', 'description': 'Partly cloudy throughout the day.', 'icon': 'partly-cloudy-day', 'stations': ['01485099999', 'ENRY', '01495099999', '02500099999', '01484399999', '01477099999', '01490099999', 'F7253', '01480099999'], 'source': 'obs'}], 'stations': {'01485099999': {'distance': 26767.0, 'latitude': 59.617, 'longitude': 10.217, 'useCount': 0, 'id': '01485099999', 'name': 'DANDE GALLEBERG, NO', 'quality': 90, 'contribution': 0.0}, 'ENRY': {'distance': 17150.0, 'latitude': 59.38, 'longitude': 10.78, 'useCount': 0, 'id': 'ENRY', 'name': 'ENRY', 'quality': 48, 'contribution': 0.0}, '01495099999': {'distance': 35855.0, 'latitude': 59.15, 'longitude': 10.833, 'useCount': 0, 'id': '01495099999', 'name': 'STROMTANGEN FYR, NO', 'quality': 95, 'contribution': 0.0}, '02500099999': {'distance': 64789.0, 'latitude': 58.9, 'longitude': 11.0, 'useCount': 0, 'id': '02500099999', 'name': 'NORDKOSTER, SW', 'quality': 97, 'contribution': 0.0}, '01484399999': {'distance': 11617.0, 'latitude': 59.317, 'longitude': 10.45, 'useCount': 0, 'id': '01484399999', 'name': 'OSEBERG, NO', 'quality': 47, 'contribution': 0.0}, '01477099999': {'distance': 38182.0, 'latitude': 59.717, 'longitude': 10.15, 'useCount': 0, 'id': '01477099999', 'name': 'KONNERUD, NO', 'quality': 93, 'contribution': 0.0}, '01490099999': {'distance': 63741.0, 'latitude': 59.983, 'longitude': 10.683, 'useCount': 0, 'id': '01490099999', 'name': 'TRYVANNSHOGDA, NO', 'quality': 94, 'contribution': 0.0}, 'F7253': {'distance': 20077.0, 'latitude': 59.375, 'longitude': 10.144, 'useCount': 0, 'id': 'F7253', 'name': 'FW7253 Tansberg NO', 'quality': 0, 'contribution': 0.0}, '01480099999': {'distance': 41873.0, 'latitude': 59.75, 'longitude': 10.133, 'useCount': 0, 'id': '01480099999', 'name': 'DRAMMEN BERSKOG, NO', 'quality': 68, 'contribution': 0.0}}, 'currentConditions': {'datetime': '14:00:00', 'datetimeEpoch': 1682769600, 'temp': 42.1, 'feelslike': 33.3, 'humidity': 63.0, 'dew': 30.5, 'precip': 0.0, 'precipprob': 0.0, 'snow': 0.0, 'snowdepth': 0.0, 'preciptype': None, 'windgust': 21.3, 'windspeed': 20.0, 'winddir': 293.0, 'pressure': 1012.7, 'visibility': 6.6, 'cloudcover': 87.2, 'solarradiation': 797.0, 'solarenergy': 2.9, 'uvindex': 8.0, 'conditions': 'Partially cloudy', 'icon': 'partly-cloudy-day', 'stations': ['ENRY', '02500099999', '01484399999'], 'source': 'obs', 'sunrise': '05:25:13', 'sunriseEpoch': 1682738713, 'sunset': '21:07:25', 'sunsetEpoch': 1682795245, 'moonphase': 0.3}}