2023-11-07
{'queryCost': 1, 'latitude': 59.4193044448, 'longitude': 10.4873698493, 'resolvedAddress': '59.4193044448,10.4873698493', 'address': '59.4193044448,10.4873698493', 'timezone': 'Europe/Oslo', 'tzoffset': 2.0, 'days': [{'datetime': '2023-04-15', 'datetimeEpoch': 1681509600, 'tempmax': 46.4, 'tempmin': 40.8, 'temp': 42.9, 'feelslikemax': 42.9, 'feelslikemin': 32.3, 'feelslike': 37.3, 'dew': 38.8, 'humidity': 85.4, 'precip': 0.315, 'precipprob': 100.0, 'precipcover': 4.17, 'preciptype': ['rain'], 'snow': 0.0, 'snowdepth': 0.0, 'windgust': 16.3, 'windspeed': 19.2, 'winddir': 243.3, 'pressure': 1020.3, 'cloudcover': 80.1, 'visibility': 6.1, 'solarradiation': 47.0, 'solarenergy': 4.0, 'uvindex': 2.0, 'sunrise': '06:04:16', 'sunriseEpoch': 1681531456, 'sunset': '20:33:41', 'sunsetEpoch': 1681583621, 'moonphase': 0.83, 'conditions': 'Rain, Partially cloudy', 'description': 'Partly cloudy throughout the day with morning rain.', 'icon': 'rain', 'stations': ['01485099999', 'ENRY', '02500099999', '01495099999', '01484399999', '01477099999', '01490099999', 'F7253', '01480099999'], 'source': 'obs'}], 'stations': {'01485099999': {'distance': 26767.0, 'latitude': 59.617, 'longitude': 10.217, 'useCount': 0, 'id': '01485099999', 'name': 'DANDE GALLEBERG, NO', 'quality': 90, 'contribution': 0.0}, 'ENRY': {'distance': 17150.0, 'latitude': 59.38, 'longitude': 10.78, 'useCount': 0, 'id': 'ENRY', 'name': 'ENRY', 'quality': 48, 'contribution': 0.0}, '02500099999': {'distance': 64789.0, 'latitude': 58.9, 'longitude': 11.0, 'useCount': 0, 'id': '02500099999', 'name': 'NORDKOSTER, SW', 'quality': 97, 'contribution': 0.0}, '01495099999': {'distance': 35855.0, 'latitude': 59.15, 'longitude': 10.833, 'useCount': 0, 'id': '01495099999', 'name': 'STROMTANGEN FYR, NO', 'quality': 95, 'contribution': 0.0}, '01484399999': {'distance': 11617.0, 'latitude': 59.317, 'longitude': 10.45, 'useCount': 0, 'id': '01484399999', 'name': 'OSEBERG, NO', 'quality': 47, 'contribution': 0.0}, '01477099999': {'distance': 38182.0, 'latitude': 59.717, 'longitude': 10.15, 'useCount': 0, 'id': '01477099999', 'name': 'KONNERUD, NO', 'quality': 93, 'contribution': 0.0}, '01490099999': {'distance': 63741.0, 'latitude': 59.983, 'longitude': 10.683, 'useCount': 0, 'id': '01490099999', 'name': 'TRYVANNSHOGDA, NO', 'quality': 94, 'contribution': 0.0}, 'F7253': {'distance': 20077.0, 'latitude': 59.375, 'longitude': 10.144, 'useCount': 0, 'id': 'F7253', 'name': 'FW7253 Tansberg NO', 'quality': 0, 'contribution': 0.0}, '01480099999': {'distance': 41873.0, 'latitude': 59.75, 'longitude': 10.133, 'useCount': 0, 'id': '01480099999', 'name': 'DRAMMEN BERSKOG, NO', 'quality': 68, 'contribution': 0.0}}, 'currentConditions': {'datetime': '13:00:00', 'datetimeEpoch': 1681556400, 'temp': 39.3, 'feelslike': 33.5, 'humidity': 91.7, 'dew': 37.0, 'precip': 0.0, 'precipprob': 0.0, 'snow': 0.0, 'snowdepth': 0.0, 'preciptype': None, 'windgust': 13.1, 'windspeed': 8.3, 'winddir': 19.0, 'pressure': 1021.9, 'visibility': None, 'cloudcover': 62.0, 'solarradiation': 163.0, 'solarenergy': 0.6, 'uvindex': 2.0, 'conditions': 'Partially cloudy', 'icon': 'partly-cloudy-day', 'stations': ['01485099999', '01495099999', '01477099999'], 'source': 'obs', 'sunrise': '06:04:16', 'sunriseEpoch': 1681531456, 'sunset': '20:33:41', 'sunsetEpoch': 1681583621, 'moonphase': 0.83}}