2023-11-07
{'queryCost': 1, 'latitude': 59.4193044448, 'longitude': 10.4873698493, 'resolvedAddress': '59.4193044448,10.4873698493', 'address': '59.4193044448,10.4873698493', 'timezone': 'Europe/Oslo', 'tzoffset': 2.0, 'days': [{'datetime': '2023-05-13', 'datetimeEpoch': 1683928800, 'tempmax': 55.7, 'tempmin': 46.1, 'temp': 50.5, 'feelslikemax': 55.7, 'feelslikemin': 42.5, 'feelslike': 48.4, 'dew': 43.7, 'humidity': 78.2, 'precip': 0.0, 'precipprob': 0.0, 'precipcover': 0.0, 'preciptype': None, 'snow': 0.0, 'snowdepth': 0.0, 'windgust': 14.2, 'windspeed': 10.7, 'winddir': 306.4, 'pressure': 1026.2, 'cloudcover': 82.8, 'visibility': 6.5, 'solarradiation': 212.4, 'solarenergy': 18.4, 'uvindex': 8.0, 'sunrise': '04:49:55', 'sunriseEpoch': 1683946195, 'sunset': '21:40:36', 'sunsetEpoch': 1684006836, 'moonphase': 0.78, 'conditions': 'Partially cloudy', 'description': 'Partly cloudy throughout the day.', 'icon': 'partly-cloudy-day', 'stations': ['01485099999', 'ENRY', '02500099999', 'D9780', '01484399999', 'F7253'], 'source': 'obs'}], 'stations': {'01485099999': {'distance': 26767.0, 'latitude': 59.617, 'longitude': 10.217, 'useCount': 0, 'id': '01485099999', 'name': 'DANDE GALLEBERG, NO', 'quality': 90, 'contribution': 0.0}, 'ENRY': {'distance': 17150.0, 'latitude': 59.38, 'longitude': 10.78, 'useCount': 0, 'id': 'ENRY', 'name': 'ENRY', 'quality': 48, 'contribution': 0.0}, '02500099999': {'distance': 64789.0, 'latitude': 58.9, 'longitude': 11.0, 'useCount': 0, 'id': '02500099999', 'name': 'NORDKOSTER, SW', 'quality': 97, 'contribution': 0.0}, 'D9780': {'distance': 43044.0, 'latitude': 59.792, 'longitude': 10.695, 'useCount': 0, 'id': 'D9780', 'name': 'DW9780 Oslo NO', 'quality': 0, 'contribution': 0.0}, '01484399999': {'distance': 11617.0, 'latitude': 59.317, 'longitude': 10.45, 'useCount': 0, 'id': '01484399999', 'name': 'OSEBERG, NO', 'quality': 47, 'contribution': 0.0}, 'F7253': {'distance': 20077.0, 'latitude': 59.375, 'longitude': 10.144, 'useCount': 0, 'id': 'F7253', 'name': 'FW7253 Tansberg NO', 'quality': 0, 'contribution': 0.0}}, 'currentConditions': {'datetime': '15:00:00', 'datetimeEpoch': 1683982800, 'temp': 54.8, 'feelslike': 54.8, 'humidity': 65.8, 'dew': 43.6, 'precip': 0.0, 'precipprob': 0.0, 'snow': 0.0, 'snowdepth': 0.0, 'preciptype': None, 'windgust': 7.0, 'windspeed': 7.3, 'winddir': 268.0, 'pressure': 1026.4, 'visibility': 6.6, 'cloudcover': 87.2, 'solarradiation': 773.0, 'solarenergy': 2.8, 'uvindex': 8.0, 'conditions': 'Partially cloudy', 'icon': 'partly-cloudy-day', 'stations': ['01485099999', 'ENRY', '02500099999', '01484399999'], 'source': 'obs', 'sunrise': '04:49:55', 'sunriseEpoch': 1683946195, 'sunset': '21:40:36', 'sunsetEpoch': 1684006836, 'moonphase': 0.78}}