2023-11-07
{'queryCost': 1, 'latitude': 59.4193044448, 'longitude': 10.4873698493, 'resolvedAddress': '59.4193044448,10.4873698493', 'address': '59.4193044448,10.4873698493', 'timezone': 'Europe/Oslo', 'tzoffset': 2.0, 'days': [{'datetime': '2023-10-28', 'datetimeEpoch': 1698444000, 'tempmax': 37.6, 'tempmin': 34.2, 'temp': 36.0, 'feelslikemax': 30.2, 'feelslikemin': 25.3, 'feelslike': 27.5, 'dew': 24.3, 'humidity': 62.2, 'precip': 0.0, 'precipprob': 0.0, 'precipcover': 0.0, 'preciptype': None, 'snow': 0.0, 'snowdepth': 0.0, 'windgust': 23.8, 'windspeed': 18.6, 'winddir': 37.1, 'pressure': 1007.1, 'cloudcover': 91.9, 'visibility': None, 'solarradiation': 20.0, 'solarenergy': 1.5, 'uvindex': 1.0, 'sunrise': '08:26:56', 'sunriseEpoch': 1698474416, 'sunset': '17:35:49', 'sunsetEpoch': 1698507349, 'moonphase': 0.5, 'conditions': 'Overcast', 'description': 'Cloudy skies throughout the day.', 'icon': 'cloudy', 'stations': ['01485099999', '01460099999', '01495099999', '01463099999', '01481099999', '01477099999', 'F7253'], 'source': 'obs'}], 'stations': {'01485099999': {'distance': 26767.0, 'latitude': 59.617, 'longitude': 10.217, 'useCount': 0, 'id': '01485099999', 'name': 'DANDE GALLEBERG, NO', 'quality': 90, 'contribution': 0.0}, '01460099999': {'distance': 5651.0, 'latitude': 59.433, 'longitude': 10.583, 'useCount': 0, 'id': '01460099999', 'name': 'GULLHOLMEN, NO', 'quality': 42, 'contribution': 0.0}, '01495099999': {'distance': 35855.0, 'latitude': 59.15, 'longitude': 10.833, 'useCount': 0, 'id': '01495099999', 'name': 'STROMTANGEN FYR, NO', 'quality': 95, 'contribution': 0.0}, '01463099999': {'distance': 30134.0, 'latitude': 59.65, 'longitude': 10.767, 'useCount': 0, 'id': '01463099999', 'name': 'AS, NO', 'quality': 67, 'contribution': 0.0}, '01481099999': {'distance': 22127.0, 'latitude': 59.233, 'longitude': 10.35, 'useCount': 0, 'id': '01481099999', 'name': 'MELSOM, NO', 'quality': 69, 'contribution': 0.0}, '01477099999': {'distance': 38182.0, 'latitude': 59.717, 'longitude': 10.15, 'useCount': 0, 'id': '01477099999', 'name': 'KONNERUD, NO', 'quality': 93, 'contribution': 0.0}, 'F7253': {'distance': 20077.0, 'latitude': 59.375, 'longitude': 10.144, 'useCount': 0, 'id': 'F7253', 'name': 'FW7253 Tansberg NO', 'quality': 0, 'contribution': 0.0}}, 'currentConditions': {'datetime': '15:00:00', 'datetimeEpoch': 1698498000, 'temp': 37.4, 'feelslike': 30.2, 'humidity': 57.8, 'dew': 23.9, 'precip': 0.0, 'precipprob': 0.0, 'snow': 0.0, 'snowdepth': 0.0, 'preciptype': None, 'windgust': 15.4, 'windspeed': 10.6, 'winddir': 49.0, 'pressure': 1007.8, 'visibility': None, 'cloudcover': 87.7, 'solarradiation': 69.0, 'solarenergy': 0.2, 'uvindex': 1.0, 'conditions': 'Partially cloudy', 'icon': 'partly-cloudy-day', 'stations': ['01485099999', '01460099999', '01495099999', '01481099999', '01477099999', 'F7253'], 'source': 'obs', 'sunrise': '08:26:56', 'sunriseEpoch': 1698474416, 'sunset': '17:35:49', 'sunsetEpoch': 1698507349, 'moonphase': 0.5}}