2023-11-07
{'queryCost': 1, 'latitude': 59.4193044448, 'longitude': 10.4873698493, 'resolvedAddress': '59.4193044448,10.4873698493', 'address': '59.4193044448,10.4873698493', 'timezone': 'Europe/Oslo', 'tzoffset': 2.0, 'days': [{'datetime': '2023-08-12', 'datetimeEpoch': 1691791200, 'tempmax': 63.3, 'tempmin': 56.1, 'temp': 58.8, 'feelslikemax': 63.3, 'feelslikemin': 56.1, 'feelslike': 58.8, 'dew': 56.1, 'humidity': 90.8, 'precip': 0.031, 'precipprob': 100.0, 'precipcover': 4.17, 'preciptype': ['rain'], 'snow': 0.0, 'snowdepth': 0.0, 'windgust': 19.2, 'windspeed': 21.1, 'winddir': 178.2, 'pressure': 1009.0, 'cloudcover': 73.0, 'visibility': 2.3, 'solarradiation': 202.8, 'solarenergy': 17.5, 'uvindex': 8.0, 'sunrise': '05:27:07', 'sunriseEpoch': 1691810827, 'sunset': '21:17:37', 'sunsetEpoch': 1691867857, 'moonphase': 0.86, 'conditions': 'Rain, Partially cloudy', 'description': 'Partly cloudy throughout the day with morning rain.', 'icon': 'rain', 'stations': ['01485099999', 'ENRY', '01495099999', '02500099999', '01484399999', '01477099999', '01490099999', 'F7253'], 'source': 'obs'}], 'stations': {'01485099999': {'distance': 26767.0, 'latitude': 59.617, 'longitude': 10.217, 'useCount': 0, 'id': '01485099999', 'name': 'DANDE GALLEBERG, NO', 'quality': 90, 'contribution': 0.0}, 'ENRY': {'distance': 17150.0, 'latitude': 59.38, 'longitude': 10.78, 'useCount': 0, 'id': 'ENRY', 'name': 'ENRY', 'quality': 48, 'contribution': 0.0}, '01495099999': {'distance': 35855.0, 'latitude': 59.15, 'longitude': 10.833, 'useCount': 0, 'id': '01495099999', 'name': 'STROMTANGEN FYR, NO', 'quality': 95, 'contribution': 0.0}, '02500099999': {'distance': 64789.0, 'latitude': 58.9, 'longitude': 11.0, 'useCount': 0, 'id': '02500099999', 'name': 'NORDKOSTER, SW', 'quality': 97, 'contribution': 0.0}, '01484399999': {'distance': 11617.0, 'latitude': 59.317, 'longitude': 10.45, 'useCount': 0, 'id': '01484399999', 'name': 'OSEBERG, NO', 'quality': 47, 'contribution': 0.0}, '01477099999': {'distance': 38182.0, 'latitude': 59.717, 'longitude': 10.15, 'useCount': 0, 'id': '01477099999', 'name': 'KONNERUD, NO', 'quality': 93, 'contribution': 0.0}, '01490099999': {'distance': 63741.0, 'latitude': 59.983, 'longitude': 10.683, 'useCount': 0, 'id': '01490099999', 'name': 'TRYVANNSHOGDA, NO', 'quality': 94, 'contribution': 0.0}, 'F7253': {'distance': 20077.0, 'latitude': 59.375, 'longitude': 10.144, 'useCount': 0, 'id': 'F7253', 'name': 'FW7253 Tansberg NO', 'quality': 0, 'contribution': 0.0}}, 'currentConditions': {'datetime': '15:00:00', 'datetimeEpoch': 1691845200, 'temp': 63.3, 'feelslike': 63.3, 'humidity': 77.9, 'dew': 56.3, 'precip': 0.0, 'precipprob': 0.0, 'snow': 0.0, 'snowdepth': 0.0, 'preciptype': None, 'windgust': 13.4, 'windspeed': 20.0, 'winddir': 169.0, 'pressure': 1010.3, 'visibility': 5.9, 'cloudcover': 29.1, 'solarradiation': 733.0, 'solarenergy': 2.6, 'uvindex': 7.0, 'conditions': 'Partially cloudy', 'icon': 'partly-cloudy-day', 'stations': ['01485099999', 'ENRY', '02500099999', '01484399999'], 'source': 'obs', 'sunrise': '05:27:07', 'sunriseEpoch': 1691810827, 'sunset': '21:17:37', 'sunsetEpoch': 1691867857, 'moonphase': 0.86}}