2023-11-07
{'queryCost': 1, 'latitude': 59.958480206462255, 'longitude': 10.880026817321777, 'resolvedAddress': '59.958480206462255,10.880026817321777', 'address': '59.958480206462255,10.880026817321777', 'timezone': 'Europe/Oslo', 'tzoffset': 2.0, 'days': [{'datetime': '2023-06-25', 'datetimeEpoch': 1687644000, 'tempmax': 79.9, 'tempmin': 54.1, 'temp': 69.1, 'feelslikemax': 79.9, 'feelslikemin': 54.1, 'feelslike': 69.1, 'dew': 51.0, 'humidity': 54.9, 'precip': 0.0, 'precipprob': 0.0, 'precipcover': 0.0, 'preciptype': None, 'snow': 0.0, 'snowdepth': 0.0, 'windgust': 21.9, 'windspeed': 10.5, 'winddir': 204.7, 'pressure': 1017.9, 'cloudcover': 35.2, 'visibility': 10.4, 'solarradiation': 300.9, 'solarenergy': 25.8, 'uvindex': 8.0, 'sunrise': '03:54:09', 'sunriseEpoch': 1687658049, 'sunset': '22:43:51', 'sunsetEpoch': 1687725831, 'moonphase': 0.24, 'conditions': 'Partially cloudy', 'description': 'Partly cloudy throughout the day.', 'icon': 'partly-cloudy-day', 'stations': ['ENRY', '01485099999', 'D9780', '01492099999', 'E4699', '01384099999', 'ENGM'], 'source': 'obs'}], 'stations': {'ENRY': {'distance': 64641.0, 'latitude': 59.38, 'longitude': 10.78, 'useCount': 0, 'id': 'ENRY', 'name': 'ENRY', 'quality': 48, 'contribution': 0.0}, '01485099999': {'distance': 53181.0, 'latitude': 59.617, 'longitude': 10.217, 'useCount': 0, 'id': '01485099999', 'name': 'DANDE GALLEBERG, NO', 'quality': 90, 'contribution': 0.0}, 'D9780': {'distance': 21283.0, 'latitude': 59.792, 'longitude': 10.695, 'useCount': 0, 'id': 'D9780', 'name': 'DW9780 Oslo NO', 'quality': 0, 'contribution': 0.0}, '01492099999': {'distance': 9152.0, 'latitude': 59.95, 'longitude': 10.717, 'useCount': 0, 'id': '01492099999', 'name': 'OSLO BLINDERN, NO', 'quality': 82, 'contribution': 0.0}, 'E4699': {'distance': 40008.0, 'latitude': 60.291, 'longitude': 11.155, 'useCount': 0, 'id': 'E4699', 'name': 'EW4699 Eidsvoll NO', 'quality': 0, 'contribution': 0.0}, '01384099999': {'distance': 28923.0, 'latitude': 60.194, 'longitude': 11.1, 'useCount': 0, 'id': '01384099999', 'name': 'GARDERMOEN, NO', 'quality': 99, 'contribution': 0.0}, 'ENGM': {'distance': 29089.0, 'latitude': 60.2, 'longitude': 11.08, 'useCount': 0, 'id': 'ENGM', 'name': 'ENGM', 'quality': 50, 'contribution': 0.0}}, 'currentConditions': {'datetime': '18:00:00', 'datetimeEpoch': 1687708800, 'temp': 79.6, 'feelslike': 79.6, 'humidity': 36.7, 'dew': 50.8, 'precip': 0.0, 'precipprob': 0.0, 'snow': 0.0, 'snowdepth': 0.0, 'preciptype': None, 'windgust': None, 'windspeed': 9.3, 'winddir': 210.0, 'pressure': 1016.1, 'visibility': 6.2, 'cloudcover': 23.5, 'solarradiation': 502.0, 'solarenergy': 1.8, 'uvindex': 5.0, 'conditions': 'Partially cloudy', 'icon': 'partly-cloudy-day', 'stations': ['ENRY', '01384099999', 'ENGM'], 'source': 'obs', 'sunrise': '03:54:09', 'sunriseEpoch': 1687658049, 'sunset': '22:43:51', 'sunsetEpoch': 1687725831, 'moonphase': 0.24}}