2023-11-07
{'queryCost': 1, 'latitude': 59.958480206462255, 'longitude': 10.880026817321777, 'resolvedAddress': '59.958480206462255,10.880026817321777', 'address': '59.958480206462255,10.880026817321777', 'timezone': 'Europe/Oslo', 'tzoffset': 2.0, 'days': [{'datetime': '2023-10-21', 'datetimeEpoch': 1697839200, 'tempmax': 33.3, 'tempmin': 28.6, 'temp': 31.1, 'feelslikemax': 23.6, 'feelslikemin': 15.7, 'feelslike': 19.9, 'dew': 25.9, 'humidity': 81.7, 'precip': 0.093, 'precipprob': 100.0, 'precipcover': 37.5, 'preciptype': ['rain', 'snow'], 'snow': 0.0, 'snowdepth': 0.0, 'windgust': 37.6, 'windspeed': 19.8, 'winddir': 63.5, 'pressure': 1013.7, 'cloudcover': 79.9, 'visibility': 12.8, 'solarradiation': 11.3, 'solarenergy': 0.9, 'uvindex': 1.0, 'sunrise': '08:09:41', 'sunriseEpoch': 1697868581, 'sunset': '17:51:34', 'sunsetEpoch': 1697903494, 'moonphase': 0.24, 'conditions': 'Snow, Rain, Partially cloudy', 'description': 'Partly cloudy throughout the day with rain or snow.', 'icon': 'rain', 'stations': ['01488099999', 'D9780', '01492099999', '01490099999', '01477099999', '01384099999', '01489099999'], 'source': 'obs'}], 'stations': {'01488099999': {'distance': 17804.0, 'latitude': 60.117, 'longitude': 10.833, 'useCount': 0, 'id': '01488099999', 'name': 'HAKADAL, NO', 'quality': 64, 'contribution': 0.0}, 'D9780': {'distance': 21283.0, 'latitude': 59.792, 'longitude': 10.695, 'useCount': 0, 'id': 'D9780', 'name': 'DW9780 Oslo NO', 'quality': 0, 'contribution': 0.0}, '01492099999': {'distance': 9152.0, 'latitude': 59.95, 'longitude': 10.717, 'useCount': 0, 'id': '01492099999', 'name': 'OSLO BLINDERN, NO', 'quality': 82, 'contribution': 0.0}, '01490099999': {'distance': 11302.0, 'latitude': 59.983, 'longitude': 10.683, 'useCount': 0, 'id': '01490099999', 'name': 'TRYVANNSHOGDA, NO', 'quality': 94, 'contribution': 0.0}, '01477099999': {'distance': 48905.0, 'latitude': 59.717, 'longitude': 10.15, 'useCount': 0, 'id': '01477099999', 'name': 'KONNERUD, NO', 'quality': 93, 'contribution': 0.0}, '01384099999': {'distance': 28923.0, 'latitude': 60.194, 'longitude': 11.1, 'useCount': 0, 'id': '01384099999', 'name': 'GARDERMOEN, NO', 'quality': 99, 'contribution': 0.0}, '01489099999': {'distance': 14955.0, 'latitude': 60.05, 'longitude': 10.683, 'useCount': 0, 'id': '01489099999', 'name': 'BJORNHOLT, NO', 'quality': 94, 'contribution': 0.0}}, 'currentConditions': {'datetime': '15:00:00', 'datetimeEpoch': 1697893200, 'temp': 32.5, 'feelslike': 22.0, 'humidity': 95.5, 'dew': 31.3, 'precip': 0.017, 'precipprob': 100.0, 'snow': 0.0, 'snowdepth': 0.0, 'preciptype': ['rain', 'snow'], 'windgust': 30.7, 'windspeed': 15.7, 'winddir': 63.0, 'pressure': 1012.0, 'visibility': 2.4, 'cloudcover': 90.0, 'solarradiation': 25.0, 'solarenergy': 0.1, 'uvindex': 0.0, 'conditions': 'Rain, Partially cloudy', 'icon': 'rain', 'stations': ['01488099999', '01492099999', '01490099999', '01477099999', '01384099999'], 'source': 'obs', 'sunrise': '08:09:41', 'sunriseEpoch': 1697868581, 'sunset': '17:51:34', 'sunsetEpoch': 1697903494, 'moonphase': 0.24}}