2023-11-07
{'queryCost': 1, 'latitude': 59.958480206462255, 'longitude': 10.880026817321777, 'resolvedAddress': '59.958480206462255,10.880026817321777', 'address': '59.958480206462255,10.880026817321777', 'timezone': 'Europe/Oslo', 'tzoffset': 2.0, 'days': [{'datetime': '2023-05-07', 'datetimeEpoch': 1683410400, 'tempmax': 58.8, 'tempmin': 32.9, 'temp': 46.5, 'feelslikemax': 58.8, 'feelslikemin': 28.1, 'feelslike': 44.8, 'dew': 26.9, 'humidity': 48.6, 'precip': 0.0, 'precipprob': 0.0, 'precipcover': 0.0, 'preciptype': None, 'snow': 0.0, 'snowdepth': 0.0, 'windgust': 15.6, 'windspeed': 10.0, 'winddir': 214.3, 'pressure': 1027.6, 'cloudcover': 9.6, 'visibility': 28.6, 'solarradiation': 287.1, 'solarenergy': 24.8, 'uvindex': 8.0, 'sunrise': '04:59:43', 'sunriseEpoch': 1683428383, 'sunset': '21:28:12', 'sunsetEpoch': 1683487692, 'moonphase': 0.56, 'conditions': 'Clear', 'description': 'Clear conditions throughout the day.', 'icon': 'clear-day', 'stations': ['01485099999', '01469099999', '01492099999', 'D9780', 'E4699', '01490099999', '01477099999', '01384099999', 'ENGM'], 'source': 'obs'}], 'stations': {'01485099999': {'distance': 53181.0, 'latitude': 59.617, 'longitude': 10.217, 'useCount': 0, 'id': '01485099999', 'name': 'DANDE GALLEBERG, NO', 'quality': 90, 'contribution': 0.0}, '01469099999': {'distance': 41980.0, 'latitude': 60.167, 'longitude': 10.25, 'useCount': 0, 'id': '01469099999', 'name': 'HONEFOSS HOYBY, NO', 'quality': 71, 'contribution': 0.0}, '01492099999': {'distance': 9152.0, 'latitude': 59.95, 'longitude': 10.717, 'useCount': 0, 'id': '01492099999', 'name': 'OSLO BLINDERN, NO', 'quality': 82, 'contribution': 0.0}, 'D9780': {'distance': 21283.0, 'latitude': 59.792, 'longitude': 10.695, 'useCount': 0, 'id': 'D9780', 'name': 'DW9780 Oslo NO', 'quality': 0, 'contribution': 0.0}, 'E4699': {'distance': 40008.0, 'latitude': 60.291, 'longitude': 11.155, 'useCount': 0, 'id': 'E4699', 'name': 'EW4699 Eidsvoll NO', 'quality': 0, 'contribution': 0.0}, '01490099999': {'distance': 11302.0, 'latitude': 59.983, 'longitude': 10.683, 'useCount': 0, 'id': '01490099999', 'name': 'TRYVANNSHOGDA, NO', 'quality': 94, 'contribution': 0.0}, '01477099999': {'distance': 48905.0, 'latitude': 59.717, 'longitude': 10.15, 'useCount': 0, 'id': '01477099999', 'name': 'KONNERUD, NO', 'quality': 93, 'contribution': 0.0}, '01384099999': {'distance': 28923.0, 'latitude': 60.194, 'longitude': 11.1, 'useCount': 0, 'id': '01384099999', 'name': 'GARDERMOEN, NO', 'quality': 99, 'contribution': 0.0}, 'ENGM': {'distance': 29089.0, 'latitude': 60.2, 'longitude': 11.08, 'useCount': 0, 'id': 'ENGM', 'name': 'ENGM', 'quality': 50, 'contribution': 0.0}}, 'currentConditions': {'datetime': '15:00:00', 'datetimeEpoch': 1683464400, 'temp': 58.8, 'feelslike': 58.8, 'humidity': 30.2, 'dew': 27.5, 'precip': 0.0, 'precipprob': 0.0, 'snow': 0.0, 'snowdepth': 0.0, 'preciptype': None, 'windgust': 8.7, 'windspeed': 8.6, 'winddir': 247.0, 'pressure': 1027.2, 'visibility': 17.6, 'cloudcover': 54.5, 'solarradiation': 729.0, 'solarenergy': 2.6, 'uvindex': 7.0, 'conditions': 'Partially cloudy', 'icon': 'partly-cloudy-day', 'stations': ['01485099999', '01492099999', '01384099999', 'ENGM'], 'source': 'obs', 'sunrise': '04:59:43', 'sunriseEpoch': 1683428383, 'sunset': '21:28:12', 'sunsetEpoch': 1683487692, 'moonphase': 0.56}}