2023-11-07
{'queryCost': 1, 'latitude': 59.958480206462255, 'longitude': 10.880026817321777, 'resolvedAddress': '59.958480206462255,10.880026817321777', 'address': '59.958480206462255,10.880026817321777', 'timezone': 'Europe/Oslo', 'tzoffset': 2.0, 'days': [{'datetime': '2023-06-17', 'datetimeEpoch': 1686952800, 'tempmax': 86.1, 'tempmin': 60.7, 'temp': 75.9, 'feelslikemax': 83.0, 'feelslikemin': 60.7, 'feelslike': 74.8, 'dew': 46.3, 'humidity': 38.4, 'precip': 0.0, 'precipprob': 0.0, 'precipcover': 0.0, 'preciptype': None, 'snow': 0.0, 'snowdepth': 0.0, 'windgust': 16.6, 'windspeed': 6.9, 'winddir': 62.0, 'pressure': 1014.3, 'cloudcover': 65.0, 'visibility': 26.0, 'solarradiation': 311.0, 'solarenergy': 26.9, 'uvindex': 8.0, 'sunrise': '03:52:49', 'sunriseEpoch': 1686966769, 'sunset': '22:42:17', 'sunsetEpoch': 1687034537, 'moonphase': 0.97, 'conditions': 'Partially cloudy', 'description': 'Partly cloudy throughout the day.', 'icon': 'partly-cloudy-day', 'stations': ['01485099999', 'ENRY', '01492099999', 'D9780', 'E4699', '01384099999', 'ENGM'], 'source': 'obs'}], 'stations': {'01485099999': {'distance': 53181.0, 'latitude': 59.617, 'longitude': 10.217, 'useCount': 0, 'id': '01485099999', 'name': 'DANDE GALLEBERG, NO', 'quality': 90, 'contribution': 0.0}, 'ENRY': {'distance': 64641.0, 'latitude': 59.38, 'longitude': 10.78, 'useCount': 0, 'id': 'ENRY', 'name': 'ENRY', 'quality': 48, 'contribution': 0.0}, '01492099999': {'distance': 9152.0, 'latitude': 59.95, 'longitude': 10.717, 'useCount': 0, 'id': '01492099999', 'name': 'OSLO BLINDERN, NO', 'quality': 82, 'contribution': 0.0}, 'D9780': {'distance': 21283.0, 'latitude': 59.792, 'longitude': 10.695, 'useCount': 0, 'id': 'D9780', 'name': 'DW9780 Oslo NO', 'quality': 0, 'contribution': 0.0}, 'E4699': {'distance': 40008.0, 'latitude': 60.291, 'longitude': 11.155, 'useCount': 0, 'id': 'E4699', 'name': 'EW4699 Eidsvoll NO', 'quality': 0, 'contribution': 0.0}, '01384099999': {'distance': 28923.0, 'latitude': 60.194, 'longitude': 11.1, 'useCount': 0, 'id': '01384099999', 'name': 'GARDERMOEN, NO', 'quality': 99, 'contribution': 0.0}, 'ENGM': {'distance': 29089.0, 'latitude': 60.2, 'longitude': 11.08, 'useCount': 0, 'id': 'ENGM', 'name': 'ENGM', 'quality': 50, 'contribution': 0.0}}, 'currentConditions': {'datetime': '15:00:00', 'datetimeEpoch': 1687006800, 'temp': 85.7, 'feelslike': 82.8, 'humidity': 23.5, 'dew': 44.2, 'precip': 0.0, 'precipprob': 0.0, 'snow': 0.0, 'snowdepth': 0.0, 'preciptype': None, 'windgust': 11.2, 'windspeed': 5.4, 'winddir': 158.0, 'pressure': 1013.8, 'visibility': 6.2, 'cloudcover': 98.9, 'solarradiation': 786.0, 'solarenergy': 2.8, 'uvindex': 8.0, 'conditions': 'Overcast', 'icon': 'cloudy', 'stations': ['01485099999', '01492099999', '01384099999', 'ENGM'], 'source': 'obs', 'sunrise': '03:52:49', 'sunriseEpoch': 1686966769, 'sunset': '22:42:17', 'sunsetEpoch': 1687034537, 'moonphase': 0.97}}