2023-11-07
{'queryCost': 1, 'latitude': 59.41302386306783, 'longitude': 5.27964126482118, 'resolvedAddress': '59.41302386306783,5.27964126482118', 'address': '59.41302386306783,5.27964126482118', 'timezone': 'Europe/Oslo', 'tzoffset': 1.0, 'days': [{'datetime': '2023-11-04', 'datetimeEpoch': 1699052400, 'tempmax': 51.8, 'tempmin': 48.1, 'temp': 50.1, 'feelslikemax': 51.8, 'feelslikemin': 42.7, 'feelslike': 47.4, 'dew': 43.6, 'humidity': 78.5, 'precip': 0.153, 'precipprob': 100.0, 'precipcover': 62.5, 'preciptype': ['rain'], 'snow': 0.0, 'snowdepth': 0.0, 'windgust': 45.3, 'windspeed': 30.5, 'winddir': 122.9, 'pressure': 974.7, 'cloudcover': 90.9, 'visibility': 6.0, 'solarradiation': 42.3, 'solarenergy': 3.7, 'uvindex': 1.0, 'sunrise': '08:05:13', 'sunriseEpoch': 1699081513, 'sunset': '16:38:46', 'sunsetEpoch': 1699112326, 'moonphase': 0.71, 'conditions': 'Rain, Overcast', 'description': 'Cloudy skies throughout the day with a chance of rain throughout the day.', 'icon': 'rain', 'stations': ['01415099999', '01424099999', '01422099999', 'ENHD', 'ENZV', '01408099999', '01416099999', 'C9988', '01413099999', '01403099999', '01419099999', '01417099999'], 'source': 'obs'}], 'stations': {'01415099999': {'distance': 63107.0, 'latitude': 58.877, 'longitude': 5.638, 'useCount': 0, 'id': '01415099999', 'name': 'SOLA, NO', 'quality': 99, 'contribution': 0.0}, '01424099999': {'distance': 66788.0, 'latitude': 59.65, 'longitude': 6.367, 'useCount': 0, 'id': '01424099999', 'name': 'SAUDA, NO', 'quality': 69, 'contribution': 0.0}, 'ENHD': {'distance': 7788.0, 'latitude': 59.35, 'longitude': 5.22, 'useCount': 0, 'id': 'ENHD', 'name': 'ENHD', 'quality': 50, 'contribution': 0.0}, 'ENZV': {'distance': 62616.0, 'latitude': 58.88, 'longitude': 5.63, 'useCount': 0, 'id': 'ENZV', 'name': 'ENZV', 'quality': 50, 'contribution': 0.0}, '01416099999': {'distance': 57673.0, 'latitude': 58.95, 'longitude': 5.733, 'useCount': 0, 'id': '01416099999', 'name': 'STAVANGER VAALAND, NO', 'quality': 77, 'contribution': 0.0}, 'C9988': {'distance': 71230.0, 'latitude': 58.82, 'longitude': 5.747, 'useCount': 0, 'id': 'C9988', 'name': 'CW9988 Sandnes NO', 'quality': 0, 'contribution': 0.0}, '01413099999': {'distance': 76787.0, 'latitude': 58.75, 'longitude': 5.65, 'useCount': 0, 'id': '01413099999', 'name': 'SAERHEIM, NO', 'quality': 89, 'contribution': 0.0}, '01403099999': {'distance': 26596.0, 'latitude': 59.3, 'longitude': 4.867, 'useCount': 0, 'id': '01403099999', 'name': 'UTSIRA FYR, NO', 'quality': 78, 'contribution': 0.0}, '01417099999': {'distance': 27741.0, 'latitude': 59.483, 'longitude': 5.75, 'useCount': 0, 'id': '01417099999', 'name': 'NEDRE VATS, NO', 'quality': 87, 'contribution': 0.0}, '01422099999': {'distance': 50870.0, 'latitude': 59.167, 'longitude': 6.033, 'useCount': 0, 'id': '01422099999', 'name': 'FISTER SIGMUNDSTAD, NO', 'quality': 95, 'contribution': 0.0}, '01408099999': {'distance': 8554.0, 'latitude': 59.345, 'longitude': 5.208, 'useCount': 0, 'id': '01408099999', 'name': 'KARMOY, NO', 'quality': 50, 'contribution': 0.0}, '01419099999': {'distance': 62491.0, 'latitude': 59.05, 'longitude': 6.117, 'useCount': 0, 'id': '01419099999', 'name': 'LIARVATN, NO', 'quality': 96, 'contribution': 0.0}}, 'currentConditions': {'datetime': '13:00:00', 'datetimeEpoch': 1699099200, 'temp': 50.0, 'feelslike': 50.0, 'humidity': 87.1, 'dew': 46.3, 'precip': 0.001, 'precipprob': 100.0, 'snow': 0.0, 'snowdepth': 0.0, 'preciptype': ['rain'], 'windgust': 24.5, 'windspeed': 17.2, 'winddir': 141.0, 'pressure': 975.0, 'visibility': 6.5, 'cloudcover': 89.0, 'solarradiation': 90.0, 'solarenergy': 0.3, 'uvindex': 1.0, 'conditions': 'Rain, Partially cloudy', 'icon': 'rain', 'stations': ['01422099999', 'ENHD', '01408099999', 'C9988', '01403099999', '01419099999'], 'source': 'obs', 'sunrise': '08:05:13', 'sunriseEpoch': 1699081513, 'sunset': '16:38:46', 'sunsetEpoch': 1699112326, 'moonphase': 0.71}}