2023-11-07
{'queryCost': 1, 'latitude': 59.41302386306783, 'longitude': 5.27964126482118, 'resolvedAddress': '59.41302386306783,5.27964126482118', 'address': '59.41302386306783,5.27964126482118', 'timezone': 'Europe/Oslo', 'tzoffset': 2.0, 'days': [{'datetime': '2023-05-20', 'datetimeEpoch': 1684533600, 'tempmax': 51.8, 'tempmin': 42.8, 'temp': 48.1, 'feelslikemax': 51.8, 'feelslikemin': 40.9, 'feelslike': 45.9, 'dew': 45.6, 'humidity': 90.9, 'precip': 0.0, 'precipprob': 0.0, 'precipcover': 0.0, 'preciptype': None, 'snow': 0.0, 'snowdepth': 0.0, 'windgust': 14.8, 'windspeed': 10.2, 'winddir': 189.8, 'pressure': 1030.2, 'cloudcover': 93.2, 'visibility': 3.2, 'solarradiation': 291.2, 'solarenergy': 25.3, 'uvindex': 8.0, 'sunrise': '04:55:23', 'sunriseEpoch': 1684551323, 'sunset': '22:17:02', 'sunsetEpoch': 1684613822, 'moonphase': 0.02, 'conditions': 'Overcast', 'description': 'Cloudy skies throughout the day.', 'icon': 'cloudy', 'stations': ['01415099999', '01422099999', 'ENHD', '01408099999', 'C9988', '01413099999', '01403099999', '01419099999'], 'source': 'obs'}], 'stations': {'01415099999': {'distance': 63107.0, 'latitude': 58.877, 'longitude': 5.638, 'useCount': 0, 'id': '01415099999', 'name': 'SOLA, NO', 'quality': 99, 'contribution': 0.0}, '01422099999': {'distance': 50870.0, 'latitude': 59.167, 'longitude': 6.033, 'useCount': 0, 'id': '01422099999', 'name': 'FISTER SIGMUNDSTAD, NO', 'quality': 95, 'contribution': 0.0}, 'ENHD': {'distance': 7788.0, 'latitude': 59.35, 'longitude': 5.22, 'useCount': 0, 'id': 'ENHD', 'name': 'ENHD', 'quality': 50, 'contribution': 0.0}, '01408099999': {'distance': 8554.0, 'latitude': 59.345, 'longitude': 5.208, 'useCount': 0, 'id': '01408099999', 'name': 'KARMOY, NO', 'quality': 50, 'contribution': 0.0}, 'C9988': {'distance': 71230.0, 'latitude': 58.82, 'longitude': 5.747, 'useCount': 0, 'id': 'C9988', 'name': 'CW9988 Sandnes NO', 'quality': 0, 'contribution': 0.0}, '01413099999': {'distance': 76787.0, 'latitude': 58.75, 'longitude': 5.65, 'useCount': 0, 'id': '01413099999', 'name': 'SAERHEIM, NO', 'quality': 89, 'contribution': 0.0}, '01403099999': {'distance': 26596.0, 'latitude': 59.3, 'longitude': 4.867, 'useCount': 0, 'id': '01403099999', 'name': 'UTSIRA FYR, NO', 'quality': 78, 'contribution': 0.0}, '01419099999': {'distance': 62491.0, 'latitude': 59.05, 'longitude': 6.117, 'useCount': 0, 'id': '01419099999', 'name': 'LIARVATN, NO', 'quality': 96, 'contribution': 0.0}}, 'currentConditions': {'datetime': '14:00:00', 'datetimeEpoch': 1684584000, 'temp': 51.8, 'feelslike': 51.8, 'humidity': 81.8, 'dew': 46.4, 'precip': 0.0, 'precipprob': 0.0, 'snow': 0.0, 'snowdepth': 0.0, 'preciptype': None, 'windgust': None, 'windspeed': 9.2, 'winddir': 221.0, 'pressure': 1031.0, 'visibility': 6.2, 'cloudcover': 50.0, 'solarradiation': 805.0, 'solarenergy': 2.9, 'uvindex': 8.0, 'conditions': 'Partially cloudy', 'icon': 'partly-cloudy-day', 'stations': ['01415099999', 'ENHD', '01408099999'], 'source': 'obs', 'sunrise': '04:55:23', 'sunriseEpoch': 1684551323, 'sunset': '22:17:02', 'sunsetEpoch': 1684613822, 'moonphase': 0.02}}