2023-11-07
{'queryCost': 1, 'latitude': 59.41302386306783, 'longitude': 5.27964126482118, 'resolvedAddress': '59.41302386306783,5.27964126482118', 'address': '59.41302386306783,5.27964126482118', 'timezone': 'Europe/Oslo', 'tzoffset': 2.0, 'days': [{'datetime': '2023-07-09', 'datetimeEpoch': 1688853600, 'tempmax': 73.4, 'tempmin': 55.6, 'temp': 65.9, 'feelslikemax': 73.4, 'feelslikemin': 55.6, 'feelslike': 65.9, 'dew': 54.1, 'humidity': 67.9, 'precip': 0.0, 'precipprob': 0.0, 'precipcover': 0.0, 'preciptype': None, 'snow': 0.0, 'snowdepth': 0.0, 'windgust': 18.2, 'windspeed': 11.4, 'winddir': 215.3, 'pressure': 1020.3, 'cloudcover': 24.7, 'visibility': 6.2, 'solarradiation': 289.3, 'solarenergy': 25.1, 'uvindex': 8.0, 'sunrise': '04:37:13', 'sunriseEpoch': 1688870233, 'sunset': '22:50:01', 'sunsetEpoch': 1688935801, 'moonphase': 0.71, 'conditions': 'Partially cloudy', 'description': 'Partly cloudy throughout the day.', 'icon': 'partly-cloudy-day', 'stations': ['01415099999', '01422099999', 'ENHD', '01408099999', 'C9988', '01413099999', '01403099999'], 'source': 'obs'}], 'stations': {'01415099999': {'distance': 63107.0, 'latitude': 58.877, 'longitude': 5.638, 'useCount': 0, 'id': '01415099999', 'name': 'SOLA, NO', 'quality': 99, 'contribution': 0.0}, '01422099999': {'distance': 50870.0, 'latitude': 59.167, 'longitude': 6.033, 'useCount': 0, 'id': '01422099999', 'name': 'FISTER SIGMUNDSTAD, NO', 'quality': 95, 'contribution': 0.0}, 'ENHD': {'distance': 7788.0, 'latitude': 59.35, 'longitude': 5.22, 'useCount': 0, 'id': 'ENHD', 'name': 'ENHD', 'quality': 50, 'contribution': 0.0}, '01408099999': {'distance': 8554.0, 'latitude': 59.345, 'longitude': 5.208, 'useCount': 0, 'id': '01408099999', 'name': 'KARMOY, NO', 'quality': 50, 'contribution': 0.0}, 'C9988': {'distance': 71230.0, 'latitude': 58.82, 'longitude': 5.747, 'useCount': 0, 'id': 'C9988', 'name': 'CW9988 Sandnes NO', 'quality': 0, 'contribution': 0.0}, '01413099999': {'distance': 76787.0, 'latitude': 58.75, 'longitude': 5.65, 'useCount': 0, 'id': '01413099999', 'name': 'SAERHEIM, NO', 'quality': 89, 'contribution': 0.0}, '01403099999': {'distance': 26596.0, 'latitude': 59.3, 'longitude': 4.867, 'useCount': 0, 'id': '01403099999', 'name': 'UTSIRA FYR, NO', 'quality': 78, 'contribution': 0.0}}, 'currentConditions': {'datetime': '14:00:00', 'datetimeEpoch': 1688904000, 'temp': 71.6, 'feelslike': 71.6, 'humidity': 43.6, 'dew': 48.3, 'precip': 0.0, 'precipprob': 0.0, 'snow': 0.0, 'snowdepth': 0.0, 'preciptype': None, 'windgust': None, 'windspeed': 6.9, 'winddir': 230.0, 'pressure': 1021.0, 'visibility': 6.2, 'cloudcover': 0.3, 'solarradiation': 821.0, 'solarenergy': 3.0, 'uvindex': 8.0, 'conditions': 'Clear', 'icon': 'clear-day', 'stations': ['01415099999', 'ENHD', '01408099999'], 'source': 'obs', 'sunrise': '04:37:13', 'sunriseEpoch': 1688870233, 'sunset': '22:50:01', 'sunsetEpoch': 1688935801, 'moonphase': 0.71}}