2023-11-07
{'queryCost': 1, 'latitude': 58.446204993663024, 'longitude': 5.999319648690289, 'resolvedAddress': '58.446204993663024,5.999319648690289', 'address': '58.446204993663024,5.999319648690289', 'timezone': 'Europe/Oslo', 'tzoffset': 2.0, 'days': [{'datetime': '2023-06-10', 'datetimeEpoch': 1686348000, 'tempmax': 73.4, 'tempmin': 49.8, 'temp': 62.2, 'feelslikemax': 73.4, 'feelslikemin': 48.3, 'feelslike': 62.1, 'dew': 45.8, 'humidity': 56.9, 'precip': 0.0, 'precipprob': 0.0, 'precipcover': 0.0, 'preciptype': None, 'snow': 0.0, 'snowdepth': 0.0, 'windgust': 28.7, 'windspeed': 20.8, 'winddir': 156.4, 'pressure': 1023.6, 'cloudcover': 21.5, 'visibility': 6.2, 'solarradiation': 329.9, 'solarenergy': 28.4, 'uvindex': 8.0, 'sunrise': '04:30:58', 'sunriseEpoch': 1686364258, 'sunset': '22:40:36', 'sunsetEpoch': 1686429636, 'moonphase': 0.75, 'conditions': 'Partially cloudy', 'description': 'Partly cloudy throughout the day.', 'icon': 'partly-cloudy-day', 'stations': ['01415099999', '01412099999', '01422099999', 'ENZV', '01413099999', '01419099999', 'D4844'], 'source': 'obs'}], 'stations': {'01415099999': {'distance': 52294.0, 'latitude': 58.877, 'longitude': 5.638, 'useCount': 0, 'id': '01415099999', 'name': 'SOLA, NO', 'quality': 99, 'contribution': 0.0}, '01412099999': {'distance': 33855.0, 'latitude': 58.65, 'longitude': 5.567, 'useCount': 0, 'id': '01412099999', 'name': 'OBRESTAD, NO', 'quality': 95, 'contribution': 0.0}, '01422099999': {'distance': 80229.0, 'latitude': 59.167, 'longitude': 6.033, 'useCount': 0, 'id': '01422099999', 'name': 'FISTER SIGMUNDSTAD, NO', 'quality': 95, 'contribution': 0.0}, 'ENZV': {'distance': 52811.0, 'latitude': 58.88, 'longitude': 5.63, 'useCount': 0, 'id': 'ENZV', 'name': 'ENZV', 'quality': 50, 'contribution': 0.0}, '01413099999': {'distance': 39423.0, 'latitude': 58.75, 'longitude': 5.65, 'useCount': 0, 'id': '01413099999', 'name': 'SAERHEIM, NO', 'quality': 89, 'contribution': 0.0}, '01419099999': {'distance': 67555.0, 'latitude': 59.05, 'longitude': 6.117, 'useCount': 0, 'id': '01419099999', 'name': 'LIARVATN, NO', 'quality': 96, 'contribution': 0.0}, 'D4844': {'distance': 37237.0, 'latitude': 58.774, 'longitude': 5.869, 'useCount': 0, 'id': 'D4844', 'name': 'DW4844 Aalgaard NO', 'quality': 0, 'contribution': 0.0}}, 'currentConditions': {'datetime': '15:00:00', 'datetimeEpoch': 1686402000, 'temp': 64.3, 'feelslike': 64.3, 'humidity': 58.5, 'dew': 49.4, 'precip': 0.0, 'precipprob': 0.0, 'snow': 0.0, 'snowdepth': 0.0, 'preciptype': None, 'windgust': 26.5, 'windspeed': 17.1, 'winddir': 170.0, 'pressure': 1024.8, 'visibility': 6.2, 'cloudcover': 1.8, 'solarradiation': 808.0, 'solarenergy': 2.9, 'uvindex': 8.0, 'conditions': 'Clear', 'icon': 'clear-day', 'stations': ['01415099999', '01412099999', '01413099999'], 'source': 'obs', 'sunrise': '04:30:58', 'sunriseEpoch': 1686364258, 'sunset': '22:40:36', 'sunsetEpoch': 1686429636, 'moonphase': 0.75}}