2023-11-07
{'queryCost': 1, 'latitude': 58.446204993663024, 'longitude': 5.999319648690289, 'resolvedAddress': '58.446204993663024,5.999319648690289', 'address': '58.446204993663024,5.999319648690289', 'timezone': 'Europe/Oslo', 'tzoffset': 2.0, 'days': [{'datetime': '2023-07-08', 'datetimeEpoch': 1688767200, 'tempmax': 68.0, 'tempmin': 51.8, 'temp': 61.8, 'feelslikemax': 68.0, 'feelslikemin': 51.8, 'feelslike': 61.8, 'dew': 53.4, 'humidity': 74.8, 'precip': 0.0, 'precipprob': 0.0, 'precipcover': 0.0, 'preciptype': None, 'snow': 0.0, 'snowdepth': 0.0, 'windgust': 15.3, 'windspeed': 10.9, 'winddir': 285.2, 'pressure': 1022.6, 'cloudcover': 13.6, 'visibility': 6.2, 'solarradiation': 311.5, 'solarenergy': 26.8, 'uvindex': 8.0, 'sunrise': '04:41:48', 'sunriseEpoch': 1688784108, 'sunset': '22:39:31', 'sunsetEpoch': 1688848771, 'moonphase': 0.67, 'conditions': 'Clear', 'description': 'Clear conditions throughout the day.', 'icon': 'clear-day', 'stations': ['01415099999', '01412099999', '01422099999', 'ENZV', 'C9988', '01413099999', 'D4844'], 'source': 'obs'}], 'stations': {'01415099999': {'distance': 52294.0, 'latitude': 58.877, 'longitude': 5.638, 'useCount': 0, 'id': '01415099999', 'name': 'SOLA, NO', 'quality': 99, 'contribution': 0.0}, '01412099999': {'distance': 33855.0, 'latitude': 58.65, 'longitude': 5.567, 'useCount': 0, 'id': '01412099999', 'name': 'OBRESTAD, NO', 'quality': 95, 'contribution': 0.0}, '01422099999': {'distance': 80229.0, 'latitude': 59.167, 'longitude': 6.033, 'useCount': 0, 'id': '01422099999', 'name': 'FISTER SIGMUNDSTAD, NO', 'quality': 95, 'contribution': 0.0}, 'ENZV': {'distance': 52811.0, 'latitude': 58.88, 'longitude': 5.63, 'useCount': 0, 'id': 'ENZV', 'name': 'ENZV', 'quality': 50, 'contribution': 0.0}, 'C9988': {'distance': 44085.0, 'latitude': 58.82, 'longitude': 5.747, 'useCount': 0, 'id': 'C9988', 'name': 'CW9988 Sandnes NO', 'quality': 0, 'contribution': 0.0}, '01413099999': {'distance': 39423.0, 'latitude': 58.75, 'longitude': 5.65, 'useCount': 0, 'id': '01413099999', 'name': 'SAERHEIM, NO', 'quality': 89, 'contribution': 0.0}, 'D4844': {'distance': 37237.0, 'latitude': 58.774, 'longitude': 5.869, 'useCount': 0, 'id': 'D4844', 'name': 'DW4844 Aalgaard NO', 'quality': 0, 'contribution': 0.0}}, 'currentConditions': {'datetime': '15:00:00', 'datetimeEpoch': 1688821200, 'temp': 63.9, 'feelslike': 63.9, 'humidity': 68.0, 'dew': 53.2, 'precip': 0.0, 'precipprob': 0.0, 'snow': 0.0, 'snowdepth': 0.0, 'preciptype': None, 'windgust': 8.7, 'windspeed': 7.0, 'winddir': 295.0, 'pressure': 1023.3, 'visibility': 6.2, 'cloudcover': 3.6, 'solarradiation': 775.0, 'solarenergy': 2.8, 'uvindex': 8.0, 'conditions': 'Clear', 'icon': 'clear-day', 'stations': ['01415099999', '01412099999', '01413099999'], 'source': 'obs', 'sunrise': '04:41:48', 'sunriseEpoch': 1688784108, 'sunset': '22:39:31', 'sunsetEpoch': 1688848771, 'moonphase': 0.67}}