2023-11-07
{'queryCost': 1, 'latitude': 62.740656, 'longitude': 7.149589, 'resolvedAddress': '62.740656,7.149589', 'address': '62.740656,7.149589', 'timezone': 'Europe/Oslo', 'tzoffset': 2.0, 'days': [{'datetime': '2023-06-04', 'datetimeEpoch': 1685829600, 'tempmax': 59.1, 'tempmin': 44.6, 'temp': 50.2, 'feelslikemax': 59.1, 'feelslikemin': 39.2, 'feelslike': 49.0, 'dew': 41.3, 'humidity': 72.1, 'precip': 0.0, 'precipprob': 0.0, 'precipcover': 0.0, 'preciptype': None, 'snow': 0.0, 'snowdepth': 0.0, 'windgust': 14.5, 'windspeed': 14.8, 'winddir': 297.4, 'pressure': 1025.0, 'cloudcover': 84.5, 'visibility': 6.2, 'solarradiation': 247.0, 'solarenergy': 21.3, 'uvindex': 7.0, 'sunrise': '03:43:49', 'sunriseEpoch': 1685843029, 'sunset': '23:17:15', 'sunsetEpoch': 1685913435, 'moonphase': 0.5, 'conditions': 'Partially cloudy', 'description': 'Partly cloudy throughout the day.', 'icon': 'partly-cloudy-day', 'stations': ['01217099999', 'ENML', 'E1600', '01218099999', '01230099999', '01232099999'], 'source': 'obs'}], 'stations': {'01217099999': {'distance': 5774.0, 'latitude': 62.745, 'longitude': 7.263, 'useCount': 0, 'id': '01217099999', 'name': 'ARO, NO', 'quality': 48, 'contribution': 0.0}, 'ENML': {'distance': 6226.0, 'latitude': 62.75, 'longitude': 7.27, 'useCount': 0, 'id': 'ENML', 'name': 'ENML', 'quality': 49, 'contribution': 0.0}, 'E1600': {'distance': 79293.0, 'latitude': 62.347, 'longitude': 5.862, 'useCount': 0, 'id': 'E1600', 'name': 'EW1600 Ulsteinvik NO', 'quality': 0, 'contribution': 0.0}, '01218099999': {'distance': 58124.0, 'latitude': 62.233, 'longitude': 7.417, 'useCount': 0, 'id': '01218099999', 'name': 'TAFJORD, NO', 'quality': 96, 'contribution': 0.0}, '01230099999': {'distance': 75485.0, 'latitude': 62.267, 'longitude': 8.2, 'useCount': 0, 'id': '01230099999', 'name': 'BJORLI, NO', 'quality': 93, 'contribution': 0.0}, '01232099999': {'distance': 48319.0, 'latitude': 62.45, 'longitude': 7.85, 'useCount': 0, 'id': '01232099999', 'name': 'VINJEORA II, NO', 'quality': 95, 'contribution': 0.0}}, 'currentConditions': {'datetime': '13:00:00', 'datetimeEpoch': 1685876400, 'temp': 51.8, 'feelslike': 51.8, 'humidity': 71.3, 'dew': 42.8, 'precip': 0.0, 'precipprob': 0.0, 'snow': 0.0, 'snowdepth': 0.0, 'preciptype': None, 'windgust': None, 'windspeed': 10.3, 'winddir': 230.0, 'pressure': 1025.0, 'visibility': 6.2, 'cloudcover': 50.0, 'solarradiation': 585.0, 'solarenergy': 2.1, 'uvindex': 6.0, 'conditions': 'Partially cloudy', 'icon': 'partly-cloudy-day', 'stations': ['01217099999', 'ENML'], 'source': 'obs', 'sunrise': '03:43:49', 'sunriseEpoch': 1685843029, 'sunset': '23:17:15', 'sunsetEpoch': 1685913435, 'moonphase': 0.5}}