2023-11-07
{'queryCost': 1, 'latitude': 58.46304485578994, 'longitude': 8.744301795959473, 'resolvedAddress': '58.46304485578994,8.744301795959472', 'address': '58.46304485578994,8.744301795959472', 'timezone': 'Europe/Oslo', 'tzoffset': 2.0, 'days': [{'datetime': '2023-04-16', 'datetimeEpoch': 1681596000, 'tempmax': 49.0, 'tempmin': 40.4, 'temp': 44.2, 'feelslikemax': 48.3, 'feelslikemin': 36.4, 'feelslike': 39.5, 'dew': 39.0, 'humidity': 81.9, 'precip': 0.0, 'precipprob': 0.0, 'precipcover': 0.0, 'preciptype': None, 'snow': 0.0, 'snowdepth': 0.0, 'windgust': 23.3, 'windspeed': 17.7, 'winddir': 37.8, 'pressure': 1026.3, 'cloudcover': 64.6, 'visibility': 7.9, 'solarradiation': 43.8, 'solarenergy': 3.8, 'uvindex': 1.0, 'sunrise': '06:11:14', 'sunriseEpoch': 1681618274, 'sunset': '20:40:08', 'sunsetEpoch': 1681670408, 'moonphase': 0.87, 'conditions': 'Partially cloudy', 'description': 'Partly cloudy throughout the day.', 'icon': 'partly-cloudy-day', 'stations': ['C0565', 'ENCN', '01455099999', '01464099999', '01452099999', '01465099999', '01459099999', '01439099999'], 'source': 'obs'}], 'stations': {'C0565': {'distance': 51191.0, 'latitude': 58.265, 'longitude': 7.954, 'useCount': 0, 'id': 'C0565', 'name': 'CW0565 Kristiansand NO', 'quality': 0, 'contribution': 0.0}, 'ENCN': {'distance': 48628.0, 'latitude': 58.2, 'longitude': 8.08, 'useCount': 0, 'id': 'ENCN', 'name': 'ENCN', 'quality': 50, 'contribution': 0.0}, '01455099999': {'distance': 64827.0, 'latitude': 59.033, 'longitude': 8.517, 'useCount': 0, 'id': '01455099999', 'name': 'TVEITSUND, NO', 'quality': 95, 'contribution': 0.0}, '01464099999': {'distance': 19619.0, 'latitude': 58.333, 'longitude': 8.517, 'useCount': 0, 'id': '01464099999', 'name': 'LANDVIK, NO', 'quality': 89, 'contribution': 0.0}, '01452099999': {'distance': 48095.0, 'latitude': 58.204, 'longitude': 8.085, 'useCount': 0, 'id': '01452099999', 'name': 'KJEVIK, NO', 'quality': 49, 'contribution': 0.0}, '01465099999': {'distance': 7377.0, 'latitude': 58.4, 'longitude': 8.783, 'useCount': 0, 'id': '01465099999', 'name': 'TORUNGEN FYR, NO', 'quality': 94, 'contribution': 0.0}, '01459099999': {'distance': 21787.0, 'latitude': 58.65, 'longitude': 8.633, 'useCount': 0, 'id': '01459099999', 'name': 'NELAUG, NO', 'quality': 55, 'contribution': 0.0}, '01439099999': {'distance': 79670.0, 'latitude': 58.25, 'longitude': 7.442, 'useCount': 0, 'id': '01439099999', 'name': 'KONSMO HOYLAND, NO', 'quality': 55, 'contribution': 0.0}}, 'currentConditions': {'datetime': '15:00:00', 'datetimeEpoch': 1681650000, 'temp': 45.5, 'feelslike': 39.6, 'humidity': 80.6, 'dew': 39.9, 'precip': 0.0, 'precipprob': 0.0, 'snow': 0.0, 'snowdepth': 0.0, 'preciptype': None, 'windgust': 14.8, 'windspeed': 12.7, 'winddir': 58.0, 'pressure': 1027.4, 'visibility': 6.2, 'cloudcover': 89.0, 'solarradiation': 103.0, 'solarenergy': 0.4, 'uvindex': 1.0, 'conditions': 'Partially cloudy', 'icon': 'partly-cloudy-day', 'stations': ['ENCN', '01464099999', '01452099999', '01465099999'], 'source': 'obs', 'sunrise': '06:11:14', 'sunriseEpoch': 1681618274, 'sunset': '20:40:08', 'sunsetEpoch': 1681670408, 'moonphase': 0.87}}