2023-11-07
{'queryCost': 1, 'latitude': 58.46304485578994, 'longitude': 8.744301795959473, 'resolvedAddress': '58.46304485578994,8.744301795959472', 'address': '58.46304485578994,8.744301795959472', 'timezone': 'Europe/Oslo', 'tzoffset': 2.0, 'days': [{'datetime': '2023-07-08', 'datetimeEpoch': 1688767200, 'tempmax': 75.7, 'tempmin': 55.4, 'temp': 64.2, 'feelslikemax': 75.7, 'feelslikemin': 55.4, 'feelslike': 64.2, 'dew': 55.5, 'humidity': 74.4, 'precip': 0.0, 'precipprob': 0.0, 'precipcover': 0.0, 'preciptype': None, 'snow': 0.0, 'snowdepth': 0.0, 'windgust': 13.4, 'windspeed': 11.8, 'winddir': 224.0, 'pressure': 1021.7, 'cloudcover': 35.4, 'visibility': 9.1, 'solarradiation': 260.4, 'solarenergy': 22.4, 'uvindex': 8.0, 'sunrise': '04:30:39', 'sunriseEpoch': 1688783439, 'sunset': '22:28:42', 'sunsetEpoch': 1688848122, 'moonphase': 0.67, 'conditions': 'Partially cloudy', 'description': 'Partly cloudy throughout the day.', 'icon': 'partly-cloudy-day', 'stations': ['C0565', 'ENCN', '01464099999', '01452099999', '01465099999', '01459099999', '01439099999'], 'source': 'obs'}], 'stations': {'C0565': {'distance': 51191.0, 'latitude': 58.265, 'longitude': 7.954, 'useCount': 0, 'id': 'C0565', 'name': 'CW0565 Kristiansand NO', 'quality': 0, 'contribution': 0.0}, 'ENCN': {'distance': 48628.0, 'latitude': 58.2, 'longitude': 8.08, 'useCount': 0, 'id': 'ENCN', 'name': 'ENCN', 'quality': 50, 'contribution': 0.0}, '01464099999': {'distance': 19619.0, 'latitude': 58.333, 'longitude': 8.517, 'useCount': 0, 'id': '01464099999', 'name': 'LANDVIK, NO', 'quality': 89, 'contribution': 0.0}, '01452099999': {'distance': 48095.0, 'latitude': 58.204, 'longitude': 8.085, 'useCount': 0, 'id': '01452099999', 'name': 'KJEVIK, NO', 'quality': 49, 'contribution': 0.0}, '01465099999': {'distance': 7377.0, 'latitude': 58.4, 'longitude': 8.783, 'useCount': 0, 'id': '01465099999', 'name': 'TORUNGEN FYR, NO', 'quality': 94, 'contribution': 0.0}, '01459099999': {'distance': 21787.0, 'latitude': 58.65, 'longitude': 8.633, 'useCount': 0, 'id': '01459099999', 'name': 'NELAUG, NO', 'quality': 55, 'contribution': 0.0}, '01439099999': {'distance': 79670.0, 'latitude': 58.25, 'longitude': 7.442, 'useCount': 0, 'id': '01439099999', 'name': 'KONSMO HOYLAND, NO', 'quality': 55, 'contribution': 0.0}}, 'currentConditions': {'datetime': '15:00:00', 'datetimeEpoch': 1688821200, 'temp': 67.3, 'feelslike': 67.3, 'humidity': 68.0, 'dew': 56.4, 'precip': 0.0, 'precipprob': 0.0, 'snow': 0.0, 'snowdepth': 0.0, 'preciptype': None, 'windgust': 6.2, 'windspeed': 4.9, 'winddir': 201.0, 'pressure': 1022.3, 'visibility': 6.2, 'cloudcover': 25.1, 'solarradiation': 756.0, 'solarenergy': 2.7, 'uvindex': 8.0, 'conditions': 'Partially cloudy', 'icon': 'partly-cloudy-day', 'stations': ['ENCN', '01464099999', '01452099999', '01465099999'], 'source': 'obs', 'sunrise': '04:30:39', 'sunriseEpoch': 1688783439, 'sunset': '22:28:42', 'sunsetEpoch': 1688848122, 'moonphase': 0.67}}