2023-11-07
{'queryCost': 1, 'latitude': 59.9586570036, 'longitude': 10.7807277603, 'resolvedAddress': '59.9586570036,10.7807277603', 'address': '59.9586570036,10.7807277603', 'timezone': 'Europe/Oslo', 'tzoffset': 2.0, 'days': [{'datetime': '2023-07-02', 'datetimeEpoch': 1688248800, 'tempmax': 61.9, 'tempmin': 55.0, 'temp': 59.0, 'feelslikemax': 61.9, 'feelslikemin': 55.0, 'feelslike': 59.0, 'dew': 53.9, 'humidity': 83.5, 'precip': 0.0, 'precipprob': 0.0, 'precipcover': 0.0, 'preciptype': None, 'snow': 0.0, 'snowdepth': 0.0, 'windgust': 20.3, 'windspeed': 11.2, 'winddir': 87.0, 'pressure': 988.7, 'cloudcover': 90.2, 'visibility': 21.1, 'solarradiation': 111.8, 'solarenergy': 9.6, 'uvindex': 4.0, 'sunrise': '04:00:19', 'sunriseEpoch': 1688263219, 'sunset': '22:40:51', 'sunsetEpoch': 1688330451, 'moonphase': 0.47, 'conditions': 'Overcast', 'description': 'Cloudy skies throughout the day.', 'icon': 'cloudy', 'stations': ['01485099999', '01469099999', 'ENRY', '01460099999', '01492099999', 'D9780', '01490099999', '01477099999', '01384099999', '01480099999', 'ENGM'], 'source': 'obs'}], 'stations': {'01485099999': {'distance': 49470.0, 'latitude': 59.617, 'longitude': 10.217, 'useCount': 0, 'id': '01485099999', 'name': 'DANDE GALLEBERG, NO', 'quality': 90, 'contribution': 0.0}, '01469099999': {'distance': 37492.0, 'latitude': 60.167, 'longitude': 10.25, 'useCount': 0, 'id': '01469099999', 'name': 'HONEFOSS HOYBY, NO', 'quality': 71, 'contribution': 0.0}, 'ENRY': {'distance': 64416.0, 'latitude': 59.38, 'longitude': 10.78, 'useCount': 0, 'id': 'ENRY', 'name': 'ENRY', 'quality': 48, 'contribution': 0.0}, '01460099999': {'distance': 59525.0, 'latitude': 59.433, 'longitude': 10.583, 'useCount': 0, 'id': '01460099999', 'name': 'GULLHOLMEN, NO', 'quality': 42, 'contribution': 0.0}, '01492099999': {'distance': 3697.0, 'latitude': 59.95, 'longitude': 10.717, 'useCount': 0, 'id': '01492099999', 'name': 'OSLO BLINDERN, NO', 'quality': 82, 'contribution': 0.0}, 'D9780': {'distance': 19221.0, 'latitude': 59.792, 'longitude': 10.695, 'useCount': 0, 'id': 'D9780', 'name': 'DW9780 Oslo NO', 'quality': 0, 'contribution': 0.0}, '01490099999': {'distance': 6081.0, 'latitude': 59.983, 'longitude': 10.683, 'useCount': 0, 'id': '01490099999', 'name': 'TRYVANNSHOGDA, NO', 'quality': 94, 'contribution': 0.0}, '01477099999': {'distance': 44385.0, 'latitude': 59.717, 'longitude': 10.15, 'useCount': 0, 'id': '01477099999', 'name': 'KONNERUD, NO', 'quality': 93, 'contribution': 0.0}, '01384099999': {'distance': 31637.0, 'latitude': 60.194, 'longitude': 11.1, 'useCount': 0, 'id': '01384099999', 'name': 'GARDERMOEN, NO', 'quality': 99, 'contribution': 0.0}, '01480099999': {'distance': 43006.0, 'latitude': 59.75, 'longitude': 10.133, 'useCount': 0, 'id': '01480099999', 'name': 'DRAMMEN BERSKOG, NO', 'quality': 68, 'contribution': 0.0}, 'ENGM': {'distance': 31590.0, 'latitude': 60.2, 'longitude': 11.08, 'useCount': 0, 'id': 'ENGM', 'name': 'ENGM', 'quality': 50, 'contribution': 0.0}}, 'currentConditions': {'datetime': '14:00:00', 'datetimeEpoch': 1688299200, 'temp': 59.9, 'feelslike': 59.9, 'humidity': 92.6, 'dew': 57.8, 'precip': 0.0, 'precipprob': 0.0, 'snow': 0.0, 'snowdepth': 0.8, 'preciptype': None, 'windgust': 11.6, 'windspeed': 3.1, 'winddir': 114.0, 'pressure': 987.9, 'visibility': 24.3, 'cloudcover': 90.0, 'solarradiation': 99.0, 'solarenergy': 0.4, 'uvindex': 1.0, 'conditions': 'Partially cloudy', 'icon': 'partly-cloudy-day', 'stations': ['01492099999', '01384099999', 'ENGM'], 'source': 'obs', 'sunrise': '04:00:19', 'sunriseEpoch': 1688263219, 'sunset': '22:40:51', 'sunsetEpoch': 1688330451, 'moonphase': 0.47}}