2023-11-07
{'queryCost': 1, 'latitude': 59.9586570036, 'longitude': 10.7807277603, 'resolvedAddress': '59.9586570036,10.7807277603', 'address': '59.9586570036,10.7807277603', 'timezone': 'Europe/Oslo', 'tzoffset': 2.0, 'days': [{'datetime': '2023-05-08', 'datetimeEpoch': 1683496800, 'tempmax': 59.3, 'tempmin': 34.7, 'temp': 48.0, 'feelslikemax': 59.3, 'feelslikemin': 29.5, 'feelslike': 46.0, 'dew': 30.6, 'humidity': 52.6, 'precip': 0.0, 'precipprob': 0.0, 'precipcover': 0.0, 'preciptype': None, 'snow': 0.0, 'snowdepth': 0.0, 'windgust': 19.2, 'windspeed': 15.2, 'winddir': 199.0, 'pressure': 1027.1, 'cloudcover': 45.2, 'visibility': 27.8, 'solarradiation': 253.7, 'solarenergy': 21.9, 'uvindex': 7.0, 'sunrise': '04:57:32', 'sunriseEpoch': 1683514652, 'sunset': '21:31:03', 'sunsetEpoch': 1683574263, 'moonphase': 0.6, 'conditions': 'Partially cloudy', 'description': 'Partly cloudy throughout the day.', 'icon': 'partly-cloudy-day', 'stations': ['01485099999', '01469099999', '01492099999', 'D9780', 'E4699', '01490099999', '01477099999', '01384099999', '01480099999', 'ENGM'], 'source': 'obs'}], 'stations': {'01485099999': {'distance': 49470.0, 'latitude': 59.617, 'longitude': 10.217, 'useCount': 0, 'id': '01485099999', 'name': 'DANDE GALLEBERG, NO', 'quality': 90, 'contribution': 0.0}, '01469099999': {'distance': 37492.0, 'latitude': 60.167, 'longitude': 10.25, 'useCount': 0, 'id': '01469099999', 'name': 'HONEFOSS HOYBY, NO', 'quality': 71, 'contribution': 0.0}, '01492099999': {'distance': 3697.0, 'latitude': 59.95, 'longitude': 10.717, 'useCount': 0, 'id': '01492099999', 'name': 'OSLO BLINDERN, NO', 'quality': 82, 'contribution': 0.0}, 'D9780': {'distance': 19221.0, 'latitude': 59.792, 'longitude': 10.695, 'useCount': 0, 'id': 'D9780', 'name': 'DW9780 Oslo NO', 'quality': 0, 'contribution': 0.0}, 'E4699': {'distance': 42395.0, 'latitude': 60.291, 'longitude': 11.155, 'useCount': 0, 'id': 'E4699', 'name': 'EW4699 Eidsvoll NO', 'quality': 0, 'contribution': 0.0}, '01490099999': {'distance': 6081.0, 'latitude': 59.983, 'longitude': 10.683, 'useCount': 0, 'id': '01490099999', 'name': 'TRYVANNSHOGDA, NO', 'quality': 94, 'contribution': 0.0}, '01477099999': {'distance': 44385.0, 'latitude': 59.717, 'longitude': 10.15, 'useCount': 0, 'id': '01477099999', 'name': 'KONNERUD, NO', 'quality': 93, 'contribution': 0.0}, '01384099999': {'distance': 31637.0, 'latitude': 60.194, 'longitude': 11.1, 'useCount': 0, 'id': '01384099999', 'name': 'GARDERMOEN, NO', 'quality': 99, 'contribution': 0.0}, '01480099999': {'distance': 43006.0, 'latitude': 59.75, 'longitude': 10.133, 'useCount': 0, 'id': '01480099999', 'name': 'DRAMMEN BERSKOG, NO', 'quality': 68, 'contribution': 0.0}, 'ENGM': {'distance': 31590.0, 'latitude': 60.2, 'longitude': 11.08, 'useCount': 0, 'id': 'ENGM', 'name': 'ENGM', 'quality': 50, 'contribution': 0.0}}, 'currentConditions': {'datetime': '17:00:00', 'datetimeEpoch': 1683558000, 'temp': 58.2, 'feelslike': 58.2, 'humidity': 35.7, 'dew': 31.1, 'precip': 0.0, 'precipprob': 0.0, 'snow': 0.0, 'snowdepth': 0.0, 'preciptype': None, 'windgust': 15.9, 'windspeed': 12.4, 'winddir': 194.0, 'pressure': 1025.5, 'visibility': 39.5, 'cloudcover': 90.0, 'solarradiation': 401.0, 'solarenergy': 1.4, 'uvindex': 4.0, 'conditions': 'Partially cloudy', 'icon': 'partly-cloudy-day', 'stations': ['01485099999', '01492099999', '01384099999', 'ENGM'], 'source': 'obs', 'sunrise': '04:57:32', 'sunriseEpoch': 1683514652, 'sunset': '21:31:03', 'sunsetEpoch': 1683574263, 'moonphase': 0.6}}