2023-11-07
{'queryCost': 1, 'latitude': 59.9586570036, 'longitude': 10.7807277603, 'resolvedAddress': '59.9586570036,10.7807277603', 'address': '59.9586570036,10.7807277603', 'timezone': 'Europe/Oslo', 'tzoffset': 2.0, 'days': [{'datetime': '2023-04-22', 'datetimeEpoch': 1682114400, 'tempmax': 66.4, 'tempmin': 37.6, 'temp': 52.2, 'feelslikemax': 66.4, 'feelslikemin': 34.1, 'feelslike': 51.4, 'dew': 34.1, 'humidity': 52.4, 'precip': 0.0, 'precipprob': 0.0, 'precipcover': 0.0, 'preciptype': None, 'snow': 0.0, 'snowdepth': 0.4, 'windgust': 20.1, 'windspeed': 11.3, 'winddir': 200.6, 'pressure': 1012.5, 'cloudcover': 24.0, 'visibility': 23.1, 'solarradiation': 232.9, 'solarenergy': 19.9, 'uvindex': 7.0, 'sunrise': '05:41:09', 'sunriseEpoch': 1682134869, 'sunset': '20:51:30', 'sunsetEpoch': 1682189490, 'moonphase': 0.07, 'conditions': 'Partially cloudy', 'description': 'Partly cloudy throughout the day.', 'icon': 'partly-cloudy-day', 'stations': ['01485099999', '01469099999', 'ENRY', '01492099999', 'D9780', '01490099999', '01477099999', '01384099999', 'ENGM'], 'source': 'obs'}], 'stations': {'01485099999': {'distance': 49470.0, 'latitude': 59.617, 'longitude': 10.217, 'useCount': 0, 'id': '01485099999', 'name': 'DANDE GALLEBERG, NO', 'quality': 90, 'contribution': 0.0}, '01469099999': {'distance': 37492.0, 'latitude': 60.167, 'longitude': 10.25, 'useCount': 0, 'id': '01469099999', 'name': 'HONEFOSS HOYBY, NO', 'quality': 71, 'contribution': 0.0}, 'ENRY': {'distance': 64416.0, 'latitude': 59.38, 'longitude': 10.78, 'useCount': 0, 'id': 'ENRY', 'name': 'ENRY', 'quality': 48, 'contribution': 0.0}, '01492099999': {'distance': 3697.0, 'latitude': 59.95, 'longitude': 10.717, 'useCount': 0, 'id': '01492099999', 'name': 'OSLO BLINDERN, NO', 'quality': 82, 'contribution': 0.0}, 'D9780': {'distance': 19221.0, 'latitude': 59.792, 'longitude': 10.695, 'useCount': 0, 'id': 'D9780', 'name': 'DW9780 Oslo NO', 'quality': 0, 'contribution': 0.0}, '01490099999': {'distance': 6081.0, 'latitude': 59.983, 'longitude': 10.683, 'useCount': 0, 'id': '01490099999', 'name': 'TRYVANNSHOGDA, NO', 'quality': 94, 'contribution': 0.0}, '01477099999': {'distance': 44385.0, 'latitude': 59.717, 'longitude': 10.15, 'useCount': 0, 'id': '01477099999', 'name': 'KONNERUD, NO', 'quality': 93, 'contribution': 0.0}, '01384099999': {'distance': 31637.0, 'latitude': 60.194, 'longitude': 11.1, 'useCount': 0, 'id': '01384099999', 'name': 'GARDERMOEN, NO', 'quality': 99, 'contribution': 0.0}, 'ENGM': {'distance': 31590.0, 'latitude': 60.2, 'longitude': 11.08, 'useCount': 0, 'id': 'ENGM', 'name': 'ENGM', 'quality': 50, 'contribution': 0.0}}, 'currentConditions': {'datetime': '15:00:00', 'datetimeEpoch': 1682168400, 'temp': 64.8, 'feelslike': 64.8, 'humidity': 33.5, 'dew': 35.4, 'precip': 0.0, 'precipprob': 0.0, 'snow': 0.0, 'snowdepth': 0.0, 'preciptype': None, 'windgust': 17.4, 'windspeed': 8.7, 'winddir': 201.0, 'pressure': 1009.8, 'visibility': 18.5, 'cloudcover': 0.0, 'solarradiation': 651.0, 'solarenergy': 2.3, 'uvindex': 7.0, 'conditions': 'Clear', 'icon': 'clear-day', 'stations': ['01492099999', '01490099999', '01477099999', '01384099999'], 'source': 'obs', 'sunrise': '05:41:09', 'sunriseEpoch': 1682134869, 'sunset': '20:51:30', 'sunsetEpoch': 1682189490, 'moonphase': 0.07}}