2023-11-07
{'queryCost': 1, 'latitude': 59.9586570036, 'longitude': 10.7807277603, 'resolvedAddress': '59.9586570036,10.7807277603', 'address': '59.9586570036,10.7807277603', 'timezone': 'Europe/Oslo', 'tzoffset': 2.0, 'days': [{'datetime': '2023-08-19', 'datetimeEpoch': 1692396000, 'tempmax': 65.4, 'tempmin': 57.8, 'temp': 62.1, 'feelslikemax': 65.4, 'feelslikemin': 57.8, 'feelslike': 62.1, 'dew': 57.4, 'humidity': 85.3, 'precip': 0.0, 'precipprob': 0.0, 'precipcover': 0.0, 'preciptype': None, 'snow': 0.0, 'snowdepth': 0.0, 'windgust': 19.2, 'windspeed': 11.1, 'winddir': 46.0, 'pressure': 1023.9, 'cloudcover': 90.8, 'visibility': 18.6, 'solarradiation': 68.4, 'solarenergy': 5.9, 'uvindex': 3.0, 'sunrise': '05:40:01', 'sunriseEpoch': 1692416401, 'sunset': '20:59:33', 'sunsetEpoch': 1692471573, 'moonphase': 0.1, 'conditions': 'Overcast', 'description': 'Cloudy skies throughout the day.', 'icon': 'cloudy', 'stations': ['01485099999', 'ENRY', '01469099999', 'D9780', '01492099999', '01473099999', '01490099999', '01477099999', '01384099999', 'ENGM'], 'source': 'obs'}], 'stations': {'01485099999': {'distance': 49470.0, 'latitude': 59.617, 'longitude': 10.217, 'useCount': 0, 'id': '01485099999', 'name': 'DANDE GALLEBERG, NO', 'quality': 90, 'contribution': 0.0}, 'ENRY': {'distance': 64416.0, 'latitude': 59.38, 'longitude': 10.78, 'useCount': 0, 'id': 'ENRY', 'name': 'ENRY', 'quality': 48, 'contribution': 0.0}, '01469099999': {'distance': 37492.0, 'latitude': 60.167, 'longitude': 10.25, 'useCount': 0, 'id': '01469099999', 'name': 'HONEFOSS HOYBY, NO', 'quality': 71, 'contribution': 0.0}, 'D9780': {'distance': 19221.0, 'latitude': 59.792, 'longitude': 10.695, 'useCount': 0, 'id': 'D9780', 'name': 'DW9780 Oslo NO', 'quality': 0, 'contribution': 0.0}, '01492099999': {'distance': 3697.0, 'latitude': 59.95, 'longitude': 10.717, 'useCount': 0, 'id': '01492099999', 'name': 'OSLO BLINDERN, NO', 'quality': 82, 'contribution': 0.0}, '01473099999': {'distance': 74699.0, 'latitude': 59.617, 'longitude': 9.633, 'useCount': 0, 'id': '01473099999', 'name': 'KONGSBERG BRANNSTASJON, NO', 'quality': 72, 'contribution': 0.0}, '01490099999': {'distance': 6081.0, 'latitude': 59.983, 'longitude': 10.683, 'useCount': 0, 'id': '01490099999', 'name': 'TRYVANNSHOGDA, NO', 'quality': 94, 'contribution': 0.0}, '01477099999': {'distance': 44385.0, 'latitude': 59.717, 'longitude': 10.15, 'useCount': 0, 'id': '01477099999', 'name': 'KONNERUD, NO', 'quality': 93, 'contribution': 0.0}, '01384099999': {'distance': 31637.0, 'latitude': 60.194, 'longitude': 11.1, 'useCount': 0, 'id': '01384099999', 'name': 'GARDERMOEN, NO', 'quality': 99, 'contribution': 0.0}, 'ENGM': {'distance': 31590.0, 'latitude': 60.2, 'longitude': 11.08, 'useCount': 0, 'id': 'ENGM', 'name': 'ENGM', 'quality': 50, 'contribution': 0.0}}, 'currentConditions': {'datetime': '15:00:00', 'datetimeEpoch': 1692450000, 'temp': 64.3, 'feelslike': 64.3, 'humidity': 67.5, 'dew': 53.3, 'precip': 0.0, 'precipprob': 0.0, 'snow': 0.0, 'snowdepth': 0.0, 'preciptype': None, 'windgust': 19.3, 'windspeed': 11.1, 'winddir': 57.0, 'pressure': 1023.2, 'visibility': 28.9, 'cloudcover': 100.0, 'solarradiation': 121.0, 'solarenergy': 0.4, 'uvindex': 1.0, 'conditions': 'Overcast', 'icon': 'cloudy', 'stations': ['01492099999', '01490099999', '01477099999', '01384099999'], 'source': 'obs', 'sunrise': '05:40:01', 'sunriseEpoch': 1692416401, 'sunset': '20:59:33', 'sunsetEpoch': 1692471573, 'moonphase': 0.1}}