2023-11-07
{'queryCost': 1, 'latitude': 59.9586570036, 'longitude': 10.7807277603, 'resolvedAddress': '59.9586570036,10.7807277603', 'address': '59.9586570036,10.7807277603', 'timezone': 'Europe/Oslo', 'tzoffset': 2.0, 'days': [{'datetime': '2023-04-10', 'datetimeEpoch': 1681077600, 'tempmax': 46.6, 'tempmin': 37.8, 'temp': 42.5, 'feelslikemax': 45.3, 'feelslikemin': 33.8, 'feelslike': 39.8, 'dew': 33.8, 'humidity': 72.4, 'precip': 0.079, 'precipprob': 100.0, 'precipcover': 4.17, 'preciptype': ['rain'], 'snow': 0.0, 'snowdepth': 1.7, 'windgust': 16.1, 'windspeed': 9.2, 'winddir': 24.9, 'pressure': 1021.6, 'cloudcover': 85.6, 'visibility': 27.0, 'solarradiation': 78.0, 'solarenergy': 6.7, 'uvindex': 4.0, 'sunrise': '06:16:16', 'sunriseEpoch': 1681100176, 'sunset': '20:21:54', 'sunsetEpoch': 1681150914, 'moonphase': 0.65, 'conditions': 'Rain, Partially cloudy', 'description': 'Partly cloudy throughout the day with morning rain.', 'icon': 'rain', 'stations': ['01485099999', 'ENRY', '01492099999', 'D9780', 'E4699', 'D1065', '01384099999', 'ENGM'], 'source': 'obs'}], 'stations': {'01485099999': {'distance': 49470.0, 'latitude': 59.617, 'longitude': 10.217, 'useCount': 0, 'id': '01485099999', 'name': 'DANDE GALLEBERG, NO', 'quality': 90, 'contribution': 0.0}, 'ENRY': {'distance': 64416.0, 'latitude': 59.38, 'longitude': 10.78, 'useCount': 0, 'id': 'ENRY', 'name': 'ENRY', 'quality': 48, 'contribution': 0.0}, '01492099999': {'distance': 3697.0, 'latitude': 59.95, 'longitude': 10.717, 'useCount': 0, 'id': '01492099999', 'name': 'OSLO BLINDERN, NO', 'quality': 82, 'contribution': 0.0}, 'D9780': {'distance': 19221.0, 'latitude': 59.792, 'longitude': 10.695, 'useCount': 0, 'id': 'D9780', 'name': 'DW9780 Oslo NO', 'quality': 0, 'contribution': 0.0}, 'E4699': {'distance': 42395.0, 'latitude': 60.291, 'longitude': 11.155, 'useCount': 0, 'id': 'E4699', 'name': 'EW4699 Eidsvoll NO', 'quality': 0, 'contribution': 0.0}, 'D1065': {'distance': 45752.0, 'latitude': 59.6, 'longitude': 11.18, 'useCount': 0, 'id': 'D1065', 'name': 'DW1065 Askim NO', 'quality': 0, 'contribution': 0.0}, '01384099999': {'distance': 31637.0, 'latitude': 60.194, 'longitude': 11.1, 'useCount': 0, 'id': '01384099999', 'name': 'GARDERMOEN, NO', 'quality': 99, 'contribution': 0.0}, 'ENGM': {'distance': 31590.0, 'latitude': 60.2, 'longitude': 11.08, 'useCount': 0, 'id': 'ENGM', 'name': 'ENGM', 'quality': 50, 'contribution': 0.0}}, 'currentConditions': {'datetime': '15:00:00', 'datetimeEpoch': 1681131600, 'temp': 46.6, 'feelslike': 42.8, 'humidity': 57.0, 'dew': 32.2, 'precip': 0.0, 'precipprob': 0.0, 'snow': 0.0, 'snowdepth': 0.0, 'preciptype': None, 'windgust': 12.6, 'windspeed': 7.6, 'winddir': 240.0, 'pressure': 1020.4, 'visibility': 30.4, 'cloudcover': 89.0, 'solarradiation': 302.0, 'solarenergy': 1.1, 'uvindex': 3.0, 'conditions': 'Partially cloudy', 'icon': 'partly-cloudy-day', 'stations': ['01485099999', '01492099999', '01384099999', 'ENGM'], 'source': 'obs', 'sunrise': '06:16:16', 'sunriseEpoch': 1681100176, 'sunset': '20:21:54', 'sunsetEpoch': 1681150914, 'moonphase': 0.65}}