2023-11-07
{'queryCost': 1, 'latitude': 59.9586570036, 'longitude': 10.7807277603, 'resolvedAddress': '59.9586570036,10.7807277603', 'address': '59.9586570036,10.7807277603', 'timezone': 'Europe/Oslo', 'tzoffset': 2.0, 'days': [{'datetime': '2023-05-28', 'datetimeEpoch': 1685224800, 'tempmax': 63.6, 'tempmin': 44.5, 'temp': 53.4, 'feelslikemax': 63.6, 'feelslikemin': 40.5, 'feelslike': 52.2, 'dew': 35.0, 'humidity': 55.4, 'precip': 0.052, 'precipprob': 100.0, 'precipcover': 4.17, 'preciptype': ['rain'], 'snow': 0.0, 'snowdepth': 0.0, 'windgust': 30.6, 'windspeed': 14.4, 'winddir': 293.9, 'pressure': 1015.2, 'cloudcover': 40.6, 'visibility': 22.8, 'solarradiation': 284.5, 'solarenergy': 24.5, 'uvindex': 8.0, 'sunrise': '04:13:38', 'sunriseEpoch': 1685240018, 'sunset': '22:16:07', 'sunsetEpoch': 1685304967, 'moonphase': 0.28, 'conditions': 'Rain, Partially cloudy', 'description': 'Partly cloudy throughout the day with morning rain.', 'icon': 'rain', 'stations': ['01485099999', '01469099999', 'ENRY', '01492099999', 'D9780', '01463099999', 'E4699', '01490099999', '01477099999', '01384099999', 'ENGM'], 'source': 'obs'}], 'stations': {'01485099999': {'distance': 49470.0, 'latitude': 59.617, 'longitude': 10.217, 'useCount': 0, 'id': '01485099999', 'name': 'DANDE GALLEBERG, NO', 'quality': 90, 'contribution': 0.0}, '01469099999': {'distance': 37492.0, 'latitude': 60.167, 'longitude': 10.25, 'useCount': 0, 'id': '01469099999', 'name': 'HONEFOSS HOYBY, NO', 'quality': 71, 'contribution': 0.0}, 'ENRY': {'distance': 64416.0, 'latitude': 59.38, 'longitude': 10.78, 'useCount': 0, 'id': 'ENRY', 'name': 'ENRY', 'quality': 48, 'contribution': 0.0}, '01492099999': {'distance': 3697.0, 'latitude': 59.95, 'longitude': 10.717, 'useCount': 0, 'id': '01492099999', 'name': 'OSLO BLINDERN, NO', 'quality': 82, 'contribution': 0.0}, 'D9780': {'distance': 19221.0, 'latitude': 59.792, 'longitude': 10.695, 'useCount': 0, 'id': 'D9780', 'name': 'DW9780 Oslo NO', 'quality': 0, 'contribution': 0.0}, '01463099999': {'distance': 34369.0, 'latitude': 59.65, 'longitude': 10.767, 'useCount': 0, 'id': '01463099999', 'name': 'AS, NO', 'quality': 67, 'contribution': 0.0}, 'E4699': {'distance': 42395.0, 'latitude': 60.291, 'longitude': 11.155, 'useCount': 0, 'id': 'E4699', 'name': 'EW4699 Eidsvoll NO', 'quality': 0, 'contribution': 0.0}, '01490099999': {'distance': 6081.0, 'latitude': 59.983, 'longitude': 10.683, 'useCount': 0, 'id': '01490099999', 'name': 'TRYVANNSHOGDA, NO', 'quality': 94, 'contribution': 0.0}, '01477099999': {'distance': 44385.0, 'latitude': 59.717, 'longitude': 10.15, 'useCount': 0, 'id': '01477099999', 'name': 'KONNERUD, NO', 'quality': 93, 'contribution': 0.0}, '01384099999': {'distance': 31637.0, 'latitude': 60.194, 'longitude': 11.1, 'useCount': 0, 'id': '01384099999', 'name': 'GARDERMOEN, NO', 'quality': 99, 'contribution': 0.0}, 'ENGM': {'distance': 31590.0, 'latitude': 60.2, 'longitude': 11.08, 'useCount': 0, 'id': 'ENGM', 'name': 'ENGM', 'quality': 50, 'contribution': 0.0}}, 'currentConditions': {'datetime': '15:00:00', 'datetimeEpoch': 1685278800, 'temp': 61.9, 'feelslike': 61.9, 'humidity': 32.8, 'dew': 32.3, 'precip': 0.0, 'precipprob': 0.0, 'snow': 0.0, 'snowdepth': 0.0, 'preciptype': None, 'windgust': 27.1, 'windspeed': 12.9, 'winddir': 297.0, 'pressure': 1015.2, 'visibility': 25.8, 'cloudcover': 45.6, 'solarradiation': 776.0, 'solarenergy': 2.8, 'uvindex': 8.0, 'conditions': 'Partially cloudy', 'icon': 'partly-cloudy-day', 'stations': ['01492099999', '01490099999', '01477099999', '01384099999'], 'source': 'obs', 'sunrise': '04:13:38', 'sunriseEpoch': 1685240018, 'sunset': '22:16:07', 'sunsetEpoch': 1685304967, 'moonphase': 0.28}}