2023-11-07
{'queryCost': 1, 'latitude': 59.9586570036, 'longitude': 10.7807277603, 'resolvedAddress': '59.9586570036,10.7807277603', 'address': '59.9586570036,10.7807277603', 'timezone': 'Europe/Oslo', 'tzoffset': 2.0, 'days': [{'datetime': '2023-08-16', 'datetimeEpoch': 1692136800, 'tempmax': 72.7, 'tempmin': 57.6, 'temp': 63.6, 'feelslikemax': 72.7, 'feelslikemin': 57.6, 'feelslike': 63.6, 'dew': 57.8, 'humidity': 82.9, 'precip': 0.237, 'precipprob': 100.0, 'precipcover': 4.17, 'preciptype': ['rain'], 'snow': 0.0, 'snowdepth': 0.0, 'windgust': 15.1, 'windspeed': 9.2, 'winddir': 210.5, 'pressure': 1014.2, 'cloudcover': 76.1, 'visibility': 22.3, 'solarradiation': 170.8, 'solarenergy': 14.6, 'uvindex': 8.0, 'sunrise': '05:32:49', 'sunriseEpoch': 1692156769, 'sunset': '21:08:03', 'sunsetEpoch': 1692212883, 'moonphase': 0.0, 'conditions': 'Rain, Partially cloudy', 'description': 'Partly cloudy throughout the day with morning rain.', 'icon': 'rain', 'stations': ['01485099999', '01469099999', 'ENRY', 'D9780', '01492099999', '01490099999', '01477099999', '01384099999', 'ENGM'], 'source': 'obs'}], 'stations': {'01485099999': {'distance': 49470.0, 'latitude': 59.617, 'longitude': 10.217, 'useCount': 0, 'id': '01485099999', 'name': 'DANDE GALLEBERG, NO', 'quality': 90, 'contribution': 0.0}, '01469099999': {'distance': 37492.0, 'latitude': 60.167, 'longitude': 10.25, 'useCount': 0, 'id': '01469099999', 'name': 'HONEFOSS HOYBY, NO', 'quality': 71, 'contribution': 0.0}, 'ENRY': {'distance': 64416.0, 'latitude': 59.38, 'longitude': 10.78, 'useCount': 0, 'id': 'ENRY', 'name': 'ENRY', 'quality': 48, 'contribution': 0.0}, 'D9780': {'distance': 19221.0, 'latitude': 59.792, 'longitude': 10.695, 'useCount': 0, 'id': 'D9780', 'name': 'DW9780 Oslo NO', 'quality': 0, 'contribution': 0.0}, '01492099999': {'distance': 3697.0, 'latitude': 59.95, 'longitude': 10.717, 'useCount': 0, 'id': '01492099999', 'name': 'OSLO BLINDERN, NO', 'quality': 82, 'contribution': 0.0}, '01490099999': {'distance': 6081.0, 'latitude': 59.983, 'longitude': 10.683, 'useCount': 0, 'id': '01490099999', 'name': 'TRYVANNSHOGDA, NO', 'quality': 94, 'contribution': 0.0}, '01477099999': {'distance': 44385.0, 'latitude': 59.717, 'longitude': 10.15, 'useCount': 0, 'id': '01477099999', 'name': 'KONNERUD, NO', 'quality': 93, 'contribution': 0.0}, '01384099999': {'distance': 31637.0, 'latitude': 60.194, 'longitude': 11.1, 'useCount': 0, 'id': '01384099999', 'name': 'GARDERMOEN, NO', 'quality': 99, 'contribution': 0.0}, 'ENGM': {'distance': 31590.0, 'latitude': 60.2, 'longitude': 11.08, 'useCount': 0, 'id': 'ENGM', 'name': 'ENGM', 'quality': 50, 'contribution': 0.0}}, 'currentConditions': {'datetime': '18:00:00', 'datetimeEpoch': 1692201600, 'temp': 70.8, 'feelslike': 70.8, 'humidity': 57.4, 'dew': 55.0, 'precip': 0.0, 'precipprob': 0.0, 'snow': 0.0, 'snowdepth': 0.0, 'preciptype': None, 'windgust': 8.0, 'windspeed': 6.5, 'winddir': 221.0, 'pressure': 1015.5, 'visibility': 27.1, 'cloudcover': 90.0, 'solarradiation': 345.0, 'solarenergy': 1.2, 'uvindex': 3.0, 'conditions': 'Partially cloudy', 'icon': 'partly-cloudy-day', 'stations': ['01492099999', '01490099999', '01477099999', '01384099999'], 'source': 'obs', 'sunrise': '05:32:49', 'sunriseEpoch': 1692156769, 'sunset': '21:08:03', 'sunsetEpoch': 1692212883, 'moonphase': 0.0}}