2023-11-07
{'queryCost': 1, 'latitude': 59.5709301268, 'longitude': 9.27053580154, 'resolvedAddress': '59.5709301268,9.27053580154', 'address': '59.5709301268,9.27053580154', 'timezone': 'Europe/Oslo', 'tzoffset': 2.0, 'days': [{'datetime': '2023-10-22', 'datetimeEpoch': 1697925600, 'tempmax': 38.2, 'tempmin': 35.1, 'temp': 36.8, 'feelslikemax': 37.9, 'feelslikemin': 30.6, 'feelslike': 33.7, 'dew': 33.2, 'humidity': 86.9, 'precip': 0.13, 'precipprob': 100.0, 'precipcover': 37.5, 'preciptype': ['rain', 'snow'], 'snow': 0.0, 'snowdepth': 0.0, 'windgust': 13.5, 'windspeed': 6.3, 'winddir': 19.9, 'pressure': 1009.5, 'cloudcover': 98.5, 'visibility': 0.6, 'solarradiation': 19.6, 'solarenergy': 1.5, 'uvindex': 1.0, 'sunrise': '08:17:28', 'sunriseEpoch': 1697955448, 'sunset': '17:56:22', 'sunsetEpoch': 1697990182, 'moonphase': 0.25, 'conditions': 'Snow, Rain, Overcast', 'description': 'Cloudy skies throughout the day with rain or snow.', 'icon': 'rain', 'stations': ['01485099999', '01473099999', '01477099999', '01455099999', 'E7230', '01470099999', '01447099999'], 'source': 'obs'}], 'stations': {'01485099999': {'distance': 53551.0, 'latitude': 59.617, 'longitude': 10.217, 'useCount': 0, 'id': '01485099999', 'name': 'DANDE GALLEBERG, NO', 'quality': 90, 'contribution': 0.0}, '01473099999': {'distance': 21066.0, 'latitude': 59.617, 'longitude': 9.633, 'useCount': 0, 'id': '01473099999', 'name': 'KONGSBERG BRANNSTASJON, NO', 'quality': 72, 'contribution': 0.0}, '01477099999': {'distance': 52069.0, 'latitude': 59.717, 'longitude': 10.15, 'useCount': 0, 'id': '01477099999', 'name': 'KONNERUD, NO', 'quality': 93, 'contribution': 0.0}, '01455099999': {'distance': 73601.0, 'latitude': 59.033, 'longitude': 8.517, 'useCount': 0, 'id': '01455099999', 'name': 'TVEITSUND, NO', 'quality': 95, 'contribution': 0.0}, 'E7230': {'distance': 4722.0, 'latitude': 59.585, 'longitude': 9.191, 'useCount': 0, 'id': 'E7230', 'name': 'EW7230 Notodden NO', 'quality': 0, 'contribution': 0.0}, '01470099999': {'distance': 21264.0, 'latitude': 59.383, 'longitude': 9.2, 'useCount': 0, 'id': '01470099999', 'name': 'GVARV, NO', 'quality': 94, 'contribution': 0.0}, '01447099999': {'distance': 60934.0, 'latitude': 59.5, 'longitude': 8.2, 'useCount': 0, 'id': '01447099999', 'name': 'HOYDALSMO II, NO', 'quality': 99, 'contribution': 0.0}}, 'currentConditions': {'datetime': '16:00:00', 'datetimeEpoch': 1697983200, 'temp': 38.2, 'feelslike': 35.6, 'humidity': 85.0, 'dew': 34.1, 'precip': 0.0, 'precipprob': 0.0, 'snow': 0.0, 'snowdepth': 0.0, 'preciptype': None, 'windgust': 12.5, 'windspeed': 3.6, 'winddir': 23.0, 'pressure': 1008.9, 'visibility': None, 'cloudcover': 100.0, 'solarradiation': 30.0, 'solarenergy': 0.1, 'uvindex': 0.0, 'conditions': 'Overcast', 'icon': 'cloudy', 'stations': ['01485099999', '01473099999', '01477099999', '01455099999', '01470099999', '01447099999'], 'source': 'obs', 'sunrise': '08:17:28', 'sunriseEpoch': 1697955448, 'sunset': '17:56:22', 'sunsetEpoch': 1697990182, 'moonphase': 0.25}}