2023-11-07
{'queryCost': 1, 'latitude': 59.5709301268, 'longitude': 9.27053580154, 'resolvedAddress': '59.5709301268,9.27053580154', 'address': '59.5709301268,9.27053580154', 'timezone': 'Europe/Oslo', 'tzoffset': 2.0, 'days': [{'datetime': '2023-08-21', 'datetimeEpoch': 1692568800, 'tempmax': 75.2, 'tempmin': 53.6, 'temp': 63.3, 'feelslikemax': 75.2, 'feelslikemin': 53.6, 'feelslike': 63.3, 'dew': 53.4, 'humidity': 74.7, 'precip': 0.006, 'precipprob': 100.0, 'precipcover': 4.17, 'preciptype': ['rain'], 'snow': 0.0, 'snowdepth': 0.0, 'windgust': 16.7, 'windspeed': 12.7, 'winddir': 280.0, 'pressure': 1015.4, 'cloudcover': 29.6, 'visibility': 6.1, 'solarradiation': 203.0, 'solarenergy': 17.6, 'uvindex': 7.0, 'sunrise': '05:52:24', 'sunriseEpoch': 1692589944, 'sunset': '20:58:21', 'sunsetEpoch': 1692644301, 'moonphase': 0.17, 'conditions': 'Rain, Partially cloudy', 'description': 'Clearing in the afternoon with morning rain.', 'icon': 'rain', 'stations': ['01485099999', '01473099999', 'ENTO', '01484399999', '01470399999', '01477099999', 'ENNO', 'E7230', '01449099999', '01447099999', '01480099999', '01482599999'], 'source': 'obs'}], 'stations': {'01473099999': {'distance': 21066.0, 'latitude': 59.617, 'longitude': 9.633, 'useCount': 0, 'id': '01473099999', 'name': 'KONGSBERG BRANNSTASJON, NO', 'quality': 72, 'contribution': 0.0}, 'ENTO': {'distance': 70109.0, 'latitude': 59.2, 'longitude': 10.27, 'useCount': 0, 'id': 'ENTO', 'name': 'ENTO', 'quality': 47, 'contribution': 0.0}, '01477099999': {'distance': 52069.0, 'latitude': 59.717, 'longitude': 10.15, 'useCount': 0, 'id': '01477099999', 'name': 'KONNERUD, NO', 'quality': 93, 'contribution': 0.0}, 'ENNO': {'distance': 2851.0, 'latitude': 59.57, 'longitude': 9.22, 'useCount': 0, 'id': 'ENNO', 'name': 'ENNO', 'quality': 19, 'contribution': 0.0}, '01447099999': {'distance': 60934.0, 'latitude': 59.5, 'longitude': 8.2, 'useCount': 0, 'id': '01447099999', 'name': 'HOYDALSMO II, NO', 'quality': 99, 'contribution': 0.0}, '01482599999': {'distance': 70485.0, 'latitude': 59.187, 'longitude': 10.259, 'useCount': 0, 'id': '01482599999', 'name': 'TORP, NO', 'quality': 47, 'contribution': 0.0}, '01485099999': {'distance': 53551.0, 'latitude': 59.617, 'longitude': 10.217, 'useCount': 0, 'id': '01485099999', 'name': 'DANDE GALLEBERG, NO', 'quality': 90, 'contribution': 0.0}, '01484399999': {'distance': 72500.0, 'latitude': 59.317, 'longitude': 10.45, 'useCount': 0, 'id': '01484399999', 'name': 'OSEBERG, NO', 'quality': 47, 'contribution': 0.0}, '01470399999': {'distance': 3339.0, 'latitude': 59.566, 'longitude': 9.212, 'useCount': 0, 'id': '01470399999', 'name': 'NOTODDEN, NO', 'quality': 18, 'contribution': 0.0}, 'E7230': {'distance': 4722.0, 'latitude': 59.585, 'longitude': 9.191, 'useCount': 0, 'id': 'E7230', 'name': 'EW7230 Notodden NO', 'quality': 0, 'contribution': 0.0}, '01449099999': {'distance': 79551.0, 'latitude': 58.867, 'longitude': 9.033, 'useCount': 0, 'id': '01449099999', 'name': 'GJERSTAD, NO', 'quality': 67, 'contribution': 0.0}, '01480099999': {'distance': 52449.0, 'latitude': 59.75, 'longitude': 10.133, 'useCount': 0, 'id': '01480099999', 'name': 'DRAMMEN BERSKOG, NO', 'quality': 68, 'contribution': 0.0}}, 'currentConditions': {'datetime': '18:00:00', 'datetimeEpoch': 1692633600, 'temp': 70.9, 'feelslike': 70.9, 'humidity': 43.6, 'dew': 47.7, 'precip': 0.0, 'precipprob': 0.0, 'snow': 0.0, 'snowdepth': 0.0, 'preciptype': None, 'windgust': 12.9, 'windspeed': 6.1, 'winddir': 281.0, 'pressure': 1015.2, 'visibility': None, 'cloudcover': 0.8, 'solarradiation': 100.0, 'solarenergy': 0.4, 'uvindex': 1.0, 'conditions': 'Clear', 'icon': 'clear-day', 'stations': ['01485099999', '01477099999', '01447099999'], 'source': 'obs', 'sunrise': '05:52:24', 'sunriseEpoch': 1692589944, 'sunset': '20:58:21', 'sunsetEpoch': 1692644301, 'moonphase': 0.17}}